Site,Type,Latitude,Longitude,22000-21000,21000-20000,20000-19000,19000-18000,18000-17000,17000-16000,16000-15000,15000-14000,14000-13000,13000-12000,12000-11000,11000-10000,10000-9000,9000-8000,8000-7000,7000-6000,6000-5000,5000-4000,4000-3000,3000-2000,2000-1000,1000-present
Three Pines Bog,Pollen,47,-80.116667,0,0,0,0,0,0,0,0,0,0,0,0,0,0,0,0,0.236406619,0,0,0,0,0,
Axe Lake,Pollen,45.38,-79.51,0,0,0,0,0,0,0,0,0,0,0,0,0.72220754325,0.485436893,0,0,0,0,0,0.495049505,0.480769231,0.603701854,
Beach Lake,Pollen,65.216667,-127.05,0,0,0,0,0,0,0,0,0,0,0,0,0,0,0,0,0,0,0,0.294985251,0,0,
Bell's Lake,Pollen,65.016667,-127.483333,0,0,0,0,0,0,0,0,0,0,3.398058252,0.369787204,0.238663484,0.642054575,0,0,0,0,0,0,0,0,
Brophy Ditch,Pollen,43.22,-81.73,0,0,0,0,0,0,0,0,0,0,0,0,0,0,0,0,0,0.309597523,0.2919645895,1.666666667,1.11447437733,2.091159611,
Tourbi̬re Caribou,Pollen,47.639722,-71.235833,0,0,0,0,0,0,0,0,0,0,0,0,0,0,0,0.4624279395,0.9167196395,0.2071467785,0.505050505,0,0,0,
Caribou Hill,Pollen,55.666667,-63.25,0,0,0,0,0,0,0,0,0,0,0,0,0,0,0,0,0.503778338,0.318524963333,0.34412154475,0,0.350757351,0.968990600667,
Chase Pond,Pollen,45.651389,-60.675,0,0,0,0,0,0,0,0,0,0,0,1.8156604745,3.04858076175,0,0,0,0,0,0,0,0,0,
Clearwater Lake,Pollen,50.873611,-107.933333,0,0,0,0,0,0,0,0,0,0,0,0,0,0,0,1.867796136,2.9933699288,2.9263643025,1.99627372667,2.30283277367,2.2753956965,2.01349137167,
Comb Lake,Pollen,49.69,-57.71,0,0,0,0,0,0,0,0,0,0,0,0,0,0.520833333,1.2632581125,1.005025126,4.06504065,4.896907216,3.9542982375,4.146341463,0,4.4705882355,
Lac C̫t̩,Pollen,48.966944,-65.95,0,0,0,0,0,0,0,0,0,0,0,0,0.801225434667,0.2028531105,0,0.367647059,0,0,0.171440674,0.161030596,0.4219559105,0.2529867665,
Cranberry Lake,Pollen,44.1,-78.1,0,0,0,0,0,0,0,0,0,1.5284838182,0,0.5,0.745098039,1.0,0,0,0.5,0.742610477,0.491900874667,0.5,0.62376237625,0.8090888845,
Crates Lake,Pollen,49.183333,-81.266667,0,0,0,0,0,0,0,0,0,0,0,0,0,0,0,0,0.167785235,0.240384615,0,0.2602282775,0,0,
Creditview Wetland,Pollen,43.6,-79.6,0,0,0,0,0,0,0,0,1.186247723,3.00060387825,1.1666666665,0.327868852,0.666666667,0,0,0,0,0,0,0,0,0,
Cummins Pond,Pollen,48.4075,-89.346667,0,0,0,0,0,0,0,0,0,0,0,0,0.331125828,0.717996573667,0.553164690333,0.550431310667,0,0.41638981175,0,0,0,0,
Delorme 2,Pollen,54.423611,-69.929722,0,0,0,0,0,0,0,0,0,0,0,0,0,0,0,0,0.248138958,0,0,0,0,0,
Devon Island Glacier,Pollen,75.35,-82.5,0,0,0,0,0,0,0,0,0,0,0,0,0,0,0,0,0,0,0,3.571428571,0,0,
Ennadai Lake  1972 Site,Pollen,61.244444,-100.951389,0,0,0,0,0,0,0,0,0,0,0,0,0,0,0,0,0,0,0,0,0,0,
East Sooke Fen,Pollen,48.351944,-123.681667,0,0,0,0,0,0,0,0,0,0,0.173611111,0,0,0,0,0,0,0,0,0,0,0,
Tourbi̬re de Farnham,Pollen,45.282778,-72.982778,0,0,0,0,0,0,0,0,0,0,0,0,0,0.176056338,0,0.233100233,0,0,0.162601626,0,0.14858841,0.131406045,
Fiddler's Pond,Pollen,56.25,-121.42,0,0,0,0,0,0,0,0,0,0,0,0,0,0,0.207900208,0.5352513735,0,0.292397661,0,0.2958243755,0,0,
Fish Lake (CA:Nunavut),Pollen,73.034722,-85.216667,0,0,0,0,0,0,0,0,0,0,0,0,0,8.333333333,2.857142857,0,0,0,0,0,0,0,
Beaverhouse Lake,Pollen,54.742222,-101.681667,0,0,0,0,0,0,0,0,0,0,0,0,0,1.904761905,0.879765396,1.236263736,0.641814336,0,0,0,0,0,
Frenchmens Bay,Pollen,43.82,-79.1,0,0,0,0,0,0,0,0,0,0,0,0,0,0,0,0,0,0,0,0.862068966,0,0.451487974,
Georgian Bay  Lake Huron (1),Pollen,44.74,-80.86,0,0,0,0,0,0,0,0,0,0,0,0,0,0,0,0,0,0,0,0,0,0,
Jones Lake [Glenboro site],Pollen,49.448,-99.28965,0,0,0,0,0,0,0,0,0,0,0,0,0,0,0,0,0,0,0,2.8926553675,2.74899703467,2.0552483475,
Gravel Ridge,Pollen,55.033333,-62.633333,0,0,0,0,0,0,0,0,0,0,0,0,0,0,0,0.619195046,0.2551676265,0.2590222745,0.323624595,0.3003003,0,0.66471595,
Green Point Pond,Pollen,49.67,-57.95,0,0,0,0,0,0,0,0,0,0,0,0,0.5,0.490196078,0,0,0,0,0,0,0.985221675,1.492537313,
Hanging Lake,Pollen,68.383333,-138.383333,0,0,0,0,0,0,0,0.283286119,0,0,0,0,0,0,0,0,0,0,0,0,0,0,
Harrie Lake,Pollen,52.933333,-66.95,0,0,0,0,0,0,0,0,0,0,0,0,0,0,0,0.667568055,0.3848825176,0.634920635,0,0.15128593,0.490194422,0.628930818,
Hawke Hills Kettle,Pollen,47.322222,-53.133333,0,0,0,0,0,0,0,0,0,0,0,0,0,0,0.93619515875,1.0234060998,1.64432163967,1.0095772155,2.029123477,2.22346590025,2.9832004192,2.476252044,
Tourbi̬re de Lanoraie HENRI,Pollen,45.988889,-73.3,0,0,0,0,0,0,0,0,0,0,0,0,0,0,0,0,0.184208373333,0.1610531115,0.287222719,0,0,0.268985724667,
Humber Pond 3,Pollen,43.64,-79.48,0,0,0,0,0,0,0,0,0,0,0,0,0,0,0,0,0,0,1.302482541,0.281690141,0,0,
Humber Pond 5,Pollen,43.64,-79.49,0,0,0,0,0,0,0,0,0,0,0,0,0,0,0,0,0,0,0.448430493,0.2515994575,0.445098039,0.3959180215,
Humber Pond 7,Pollen,43.65,-79.5,0,0,0,0,0,0,0,0,0,0,0,0,0,0,0,0,0,0,0.9520070966,1.10062893067,0.481069509667,1.12793783585,
Iglutalik Lake,Pollen,66.135,-66.083333,0,0,0,0,0,0,0,0,0,0,0,0,0,0,0.930232558,0,0,0,0,0,0,0,
Inglesby Lake,Pollen,44.483333,-77.05,0,0,0,0,0,0,0,0,0,0,0,0.490196078,0.452488688,0,0,0,0,0,0,0,0,0,
James Bay,Pollen,50.22,-80.2,0,0,0,0,0,0,0,0,0,0,0,0,0,0,0,0,0,0,0,0,0.9852455835,0,
Joes Pond,Pollen,48.24,-58.24,0,0,0,0,0,0,0,0,0.686051264,1.7741770075,0.4975247525,0,0,0,0,0,0,0,0,0.492610837,0,0.4914034575,
Lac Hamard,Pollen,54.8,-67.5,0,0,0,0,0,0,0,0,0,0,0,0,0,0,0,0,0.334448161,0,0,0,0,0,
Lake B,Pollen,53.8,-106.079167,0,0,0,0,0,0,0,0,0,0,0,0.67897875875,1.246358741,1.1853143222,0.679866689333,1.833429728,0.984838126,0.415888497,0.5309451065,0.403225806,0.521442436,0.544927284333,
Lake CH2,Pollen,49.683333,-74.583333,0,0,0,0,0,0,0,0,0,0,0,0,0,0,0.409416581,0,0,0.196656834,0,0,0,0,
Lake EC1,Pollen,56.283333,-75.1,0,0,0,0,0,0,0,0,0,0,0,0,0,0,0,0,0,0.307692308,0.123609394,0.170648464,0,0,
Lake EC2,Pollen,56.023333,-74.945,0,0,0,0,0,0,0,0,0,0,0,0,0,0,0,0,0.714285714,0.149812734,0.2232925615,0.1748145585,0.25331266025,0.2245077744,
Lake GB1,Pollen,55.110833,-75.248889,0,0,0,0,0,0,0,0,0,0,0,0,0,0,0,0,0.2687339865,0.129533679,0.151400454,0.163139005,0.219096849333,0,
Lake LR1,Pollen,58.583333,-75.25,0,0,0,0,0,0,0,0,0,0,0,0,0,0,0,0.479233227,0,0,0,0,0,0,
Lake LR3,Pollen,58.578333,-75.245,0,0,0,0,0,0,0,0,0,0,0,0,0,0,0,0,0.179344465,0.196656834,0.2725396405,0.372439479,0.407768863667,0.573604423167,
Lake LT1,Pollen,58.141667,-75.15,0,0,0,0,0,0,0,0,0,0,0,0,0,0,0,0,0.1439704,0.148367953,0,0.17715285,0.203626943,0.3125,
L'Anse aux Meadows Site,Pollen,51.573333,-55.55,0,0,0,0,0,0,0,0,0,0,0,0,0,0,0,0,0,0,0,0,1.81191606517,2.85448646073,
Lateral Pond,Pollen,65.942222,-135.514167,0,0,0,0,0,0,0.40860165,0,0,0,0,0,0,0,0,0,0,0,0,0,0,0,
Leading Tickles,Pollen,49.471389,-55.473056,0,0,0,0,0,0,4.0,1.515151515,2.75862069,3.773584906,3.45846555433,1.2715515855,0.435738042333,0.342820999,0.2062807885,0,0.2794742945,0.7398504275,0.314465409,0,0.7052905585,0,
Little Lake (CA:Nova Scotia),Pollen,44.668056,-63.938889,0,0,0,0,0,0,0,0,0,0,0,1.7227670644,0,0,0,0,0,0,0,0,0,0,
Long Lake (CA:Nunavut),Pollen,62.633333,-101.233333,0,0,0,0,0,0,0,0,0,0,0,0,0,0,0,0,0,0.305810398,0,0,0,0.294117647,
M Lake,Pollen,68.266667,-133.466667,0,0,0,0,0,0,0,0,0,0,4.166666667,0,0,0,0,0,0,0,0,0,0,0,
Marion Lake (CA:British Columbia),Pollen,49.308333,-122.547222,0,0,0,0,0,0,0,0,0,0.364298725,0.310992915333,0.269448066,0.509303562,0,0.184796374333,0.309442332333,0.289017341,0.322580645,0,0,0,0,
Lac Martyne,Pollen,56.783333,-64.833333,0,0,0,0,0,0,0,0,0,0,0,0,0,0,0,0.9391261545,0,0.294985251,0,0,0.3107954435,0.301207552,
Sud du Lac du Noyer,Pollen,46.787778,-72.837778,0,0,0,0,0,0,0,0,0,0,0,0.217758192,0,0,0,0,0,0,0,0,0,0,
McCarston's Lake,Pollen,45.05,-80.09,0,0,0,0,0,0,0,0,0,0,0,0,0,0,0,0,0,0,0,0,0,0.3333370375,
McLaughlan Lake,Pollen,45.363333,-76.554167,0,0,0,0,0,0,0,0,0,0,0,1.694915254,0,0,0,0,0,0,0,0,0,0,
Moraine Lake,Pollen,52.266667,-58.05,0,0,0,0,0,0,0,0,0,0,0,0,0,0,0,0,0,0,0,0,0.149925037,0,
Mordsger Lake,Pollen,51.383333,-94.25,0,0,0,0,0,0,0,0,0,0,0,0,0.663351741667,0.998154300333,0.771548558,0.5975666104,0,0.4994462905,0.333333333,0.331125828,0,0.333333333,
Natla Bog,Pollen,63.016667,-128.8,0,0,0,0,0,0,0,0,0,0,0,0,0,0,0,0,0.287356322,0,0,0,0,0,
Oliver Pond,Pollen,48.422222,-89.323889,0,0,0,0,0,0,0,0,0,0,0,0,0,0,0.3322295805,0,0,0,0,0,0,0.649350649,
Lac Ouellet,Pollen,47.532778,-68.943889,0,0,0,0,0,0,0,0,0,0,4.135329677,1.25342804533,0.1901570005,0.330033003,0,0.101626016,0,0,0,0,0,0,
Parkhill Creek,Pollen,43.18,-81.75,0,0,0,0,0,0,0,0,0,0,0,0.9729482866,0,0,0,0,0,0,0,0,0,0,
Pass Lake,Pollen,48.56,-88.74,0,0,0,0,0,0,0,0,0,0,0,0,0.4801620788,0.2849372895,0.4283592275,0,0.422540917,0.5095858874,0.56022409,0,0,0,
Lac Patricia,Pollen,56.67,-64.68,0,0,0,0,0,0,0,0,0,0,0,0,0,0,0,0,0.298507463,0.294962186,0.303951368,0.36977527325,0.2860239415,0.7846667262,
Peatsah Section,Pollen,43.33,-79.82,0,0,0,0,0,0,0,0,0,0,1.4983611675,0.333333333,0,0,0,1.0,0,0,0,0,0,0,
Perch Lake,Pollen,46.03,-77.34,0,0,0,0,0,0,0,0,0,0,0.831024931,0.346469632333,0.23923445,0.431475144,0.574712644,0,0,0,0,0.31478420675,0.528949165667,0.305844306,
Pink Lake,Pollen,45.469444,-75.808333,0,0,0,0,0,0,0,0,0,0,0.926916221,0.926363923,0,0,0,0,0,0,0.163934426,0,0,0.3027277555,
Porqui Pond,Pollen,44.93,-79.78,0,0,0,0,0,0,0,0,0,1.0,0,1.66006600667,0,0,0,0,0,0,0,0,0,0,
Portage Bog,Pollen,46.673611,-64.075,0,0,0,0,0,0,0,0,0,0,0,0,0,0,0,0,0,0.913242009,0,0,0,0,
Point Escuminac,Pollen,47.075,-64.8,0,0,0,0,0,0,0,0,0,0,0,0,0.81655713,0,0.711743772,0,0,0,0,0,0,0,
Reindeer Lake,Pollen,69.116667,-132.166667,0,0,0,0,0,0,0,0.6953718075,0,0.325732899,0.668896321,0,0.327868852,0,0.326797386,0,0,0,0,0,0,0.30816641,
R Lake,Pollen,54.305556,-84.558333,0,0,0,0,0,0,0,0,0,0,0,0,0,0,0,0.3125,0,0.4462500455,0.909090909,0.394396724333,0.498712998667,0,
Rose Swamp,Pollen,44.18,-79.44,0,0,0,0,0,0,0,0,0,0,0,0.479800859,2.265372168,0.331125828,0,0,0,0,0,0,0,0.709219858,
Rostock Mammoth Site,Pollen,43.5,-81,0,0,0,0,0,0,1.22979797975,0.990163722333,1.5,1.06246657471,0.941216556,0.495116460833,0.660066007,0,0,0,0,0,0,0,0,0,
Lac au Sable,Pollen,51.4,-66.216667,0,0,0,0,0,0,0,0,0,0,0,0,0,0,0,0.6178652965,0,0,0.242130751,0,0,0,
Lac aux Quenouilles,Pollen,46.171944,-74.395833,0,0,0,0,0,0,0,0,0,0,0,0,0,0,0.173010381,0.194825208,0,0.471698113,0.173611111,0,0,0,
Second Lake,Pollen,44.85,-79.98,0,0,0,0,0,0,0,0,0,0,0,0,0,0,0,0,0,0,0,0,0,0.285714286,
LD Lake,Pollen,50.140278,-67.131944,0,0,0,0,0,0,0,0,0,0,0,0,0,0,0.727272727,0,0.3434010535,0.573065903,0.308641975,0.258937521,0.3003003,0.3758897875,
Sewell Lake,Pollen,49.84135,-99.5763,0,0,0,0,0,0,0,0,0,0,0,0,0,0,0,0,0,0,2.41734908033,2.28237651275,3.04542305,2.64286889133,
Saint-Francois de Sales,Pollen,48.293889,-72.146944,0,0,0,0,0,0,0,0,0,0,0,0.321543408,0,0,0,0,0,0,0,0.198019802,0,0.181488203,
Sioux Pond,Pollen,49.933333,-91.566667,0,0,0,0,0,0,0,0,0,0,0,0,1.312910284,4.1997272135,1.5715456894,1.0010873536,0.693026017286,0.235233260833,0.3570023775,0,0,0,
Sleet Lake,Pollen,69.283333,-133.583333,0,0,0,0,0,0,0,0,0,0,0,0,0,0,0,0,0,0.166666667,0,0.17551146,0.197541998333,0.357603982,
Slow River,Pollen,63.033333,-100.75,0,0,0,0,0,0,0,0,0,0,0,0,0,0,0,0,0,0,0,0,0.23923445,0,
Sweet Little Lake,Pollen,67.65,-132.016667,0,0,0,0,0,0,0,0,0,0,0,0.2043426455,0,0,0,0.184501845,0,0,0.54446461,0,0,0.202020202,
Toboggan Lake,Pollen,50.815305,-114.59946,0,0,0,0,0,0,0,0,0,0,0,0,0,0.242130751,0.223214286,0.264550265,0,0,0.285714286,0,0,0,
Tonawa Lake,Pollen,44.85,-77.175,0,0,0,0,0,0,0,0,0,0,0,0,0.308641975,0,0,0,0.341296928,0,0,0,0,0.310559006,
Tuktoyaktuk 5,Pollen,69.05,-133.45,0,0,0,0,0,0,0,0,0,0,0,0,0,0,0,0,0,0.177935943,0,0,0.644781475333,1.437371663,
Lac Turcotte,Pollen,49.157778,-65.762778,0,0,0,0,0,0,0,0,0,0,0,1.7945990548,0.2530241085,0.133155792,0,0.1669826045,0.165837479,0,0,0,0.222717149,0.169204738,
Twin Lakes (CA:British Columbia),Pollen,50.75,-116.33,0,0,0,0,0,0,0,0,0,0,0,0,0,0.119331742,0.455062571,0,0,0.134952767,0.1000798645,0.2654695965,0,0,
Tyrrell Lake,Pollen,66.05,-135.655556,0,0,0,0,0,0,0,0,0,0,0,0.280112045,2.0685197155,0,0.238095238,0,0,0,0,0,0,0,
Van Nostrand Lake,Pollen,44,-79.38,0,0,0,0,0,0,0,0,0,0,0,0,0,0,0,0,0,0,0,1.226993865,0,0,
Walker Lake,Pollen,48.529167,-124.002222,0,0,0,0,0,0,0,0,0,0.325732899,0.314465409,0.974025974,0,0,0,0,0,0,0,0,0,0,
Weslemkoon Lake,Pollen,45.033333,-77.433333,0,0,0,0,0,0,0,0,0,0,0,0,0,0,0,0.99009901,0,0.497512438,0,0,0.492610837,0,
Whitney's Gulch,Pollen,51.516667,-57.3,0,0,0,0,0,0,0,0,0,0,0,0,0.877192982,0.490196078,0,0,0,0.242130751,0.6905225985,0.326797386,0,0.576368876,
Wild Spear Lake,Pollen,59.25,-114.15,0,0,0,0,0,0,0,0,0,0,9.090909091,2.56518672083,1.6023613544,2.590608257,0,0,0,0,0,0,0,0,
Basswood Road Lake/Splan Pond,Pollen,45.255556,-67.330556,0,0,0,0,0,0,0,0,0,0,1.169590643,1.35941341787,0.792782546333,0,0,0,0,0,0,0,0,0,
Bellshill Lake,Pollen,52.60273,-111.556055,0,0,0,0,0,0,0,0,0,0,0,0,0,0,0,0,0,0,0,0,0,0.274390244,
Pyrola Lake,Pollen,50.183195,-127.697995,0,0,0,0,0,0,0,0,0,0,0.882352941,0,0,0,0,0,0,0,0,0,0,0,
Spillway Pond,Pollen,56.239975,-130.068815,0,0,0,0,0,0,0,0,0,0,0,0,0,0,0,0,0,0,0,0,0,2.06185567,
Rasberry Bog,Pollen,57.484395,-130.829355,0,0,0,0,0,0,0,0,0,0,0,0,0,0,0,0,0,0,0,0.67114094,0,0,
Lantz Site,Pollen,44.979797,-63.48817,0,0,0,0,0,0,0,0,0.7239806736,0,0,0,0,0,0,0,0,0,0,0,0,0,
Buckbean Bog,Pollen,49.11905,-119.68305,0,0,0,0,0,0,0,0,0,0,0,0.299401198,0.246305419,0,0,1.740681599,1.18694362,1.363890665,0.278551532,0,0,1.0623818248,
Stewert Point Pond,Pollen,72.3515,-120.22,0,0,0,0,0,0,0,0,0,0,0,0,0,0,0,0,0,0,0,0,0,0.925925926,
Blomidon Section MS-89-16,Pollen,45.2235,-64.3751,0,0,0,0,0,0,0.662251656,5.063291139,0.6339180395,2.380952381,0,1.119402985,0,0.709219858,0,0,0.7783387425,0.985221675,0.625,0,4.273504274,0.816718358,
Larix laricina Site 4,Pollen,57.71916667,-75.81347222,0,0,0,0,0,0,0,0,0,0,0,0,0,0,0,0,0,0,0,0.3140344305,0.285714286,0,
Chance Harbour Lake,Pollen,45.670215,-62.610975,0,0,0,0,0,0,0.643776824,1.17929279183,0,0.56980057,0,0,0,0,0,0,0,0,0.324675325,0,0,0,
Patricia Bay Lake,Pollen,70.46194444,-68.50277778,0,0,0,0,0,0,0,0,0,0,0,0,0,0,0.793650794,0,0,0,0,0,0,0,
Twiss Marl Pond,Pollen,43.44083,-79.95551,0,0,0,0,0,0,0,0,0,1.67358796936,0.630195694429,0.4119438335,0.576665245,0,0,0.392156863,0,0,0,0,0,2.484126984,
Rice Lake,Pollen,44.199085,-78.14232,0,0,0,0,0,0,0,0,0,0,1.267379679,0.793278828,2.25263455154,0.221486917667,0,0.727956683667,0.911240988692,0.301237689818,0.630960030111,0.262433715571,0.9185369936,2.08251865279,
McGinnis Lake,Pollen,44.607495,-78.039815,0,0,0,0,0,0,0,0,0,0,0,0,0,0,0,0,0,0,0,0,0,0.265957447,
Dugas Bay Bog,Pollen,46.31027699,-79.38083626,0,0,0,0,0,0,0,0,0,0,0,0,0,0,0,0,0,0,0.476190474,0,0,0,
Kilbride Swamp,Pollen,43.46458333,-79.91541667,0,0,0,0,0,0,0,0,0,0.492610837,0,0,0,0,0,0,0,0,0,0,0,0,
Mark Pond,Pollen,51.83986111,-89.61541667,0,0,0,0,0,0,0,0,0,0,0,0,0,0,0.6809816676,0,0.454545455,0.4784689,0,0,0.446428571,0.54752357,
Preston Lake,Pollen,43.98690278,-79.37944,0,0,0,0,0,0,0,0,0,0,0,0,0,0,0,0,0,0,0,0.478108450667,0.471698113,0.49940698025,
Round Pond,Pollen,52.531655,-91.37236111,0,0,0,0,0,0,0,0,0,0,0,0,0,0.775193798,0.41322314,0,0,0.409836066,0.4198506805,0,0,0,
Webbs Lake,Pollen,44.16706667,-78.1025,0,0,0,0,0,0,0,0,0,0,0,0,0.483091787,0,0,0,0.483091787,0.480769231,0,0,0,0.400057223333,
Lovesick Lake,Pollen,44.55680556,-78.22479722,0,0,0,0,0,0,0,0,0,0,0,0,0,0,0,0,0,0,0,0,0.469483568,0.446233353,
Almora Lake,Pollen,46.206111,-95.293611,0,0,0,0,0,0,0,0,0,0,0.700934579,0.87469464725,0.181668129667,0,0,1.226993865,3.594771242,0.7483835525,0,0,0,0,
Andree Bog,Pollen,45.725,-93.25,0,0,0,0,0,0,0,0,0,0,2.17420749333,0.885656720222,0.326450197,0,0,0,0,0,0,0,0,0,
Andrus Lake,Pollen,46.7,-85.040278,0,0,0,0,0,0,0,0,0,0,0,0,0,0,0,0,0,0,0,0,0,0.962321204833,
Angal Lake,Pollen,67.133333,-153.9,0,0,0,0,0,0,0,0.99009901,0.965228102,0.328947368,0.327868852,0,0,0,0,0,0,0.3003003,0,0,0,0.687285223,
Arrington Marsh,Pollen,39.495,-95.526667,0,0,0,0,0,0,0,0,0,0,0,0,0,0,0,0,0,0,0,0,0,0,
Balsam Meadow,Pollen,37.195833,-119.260278,0,0,0,0,0,0,0,0,0,0,0,6.842105263,0,0,6.857142857,4.619565217,1.289325768,2.4829480025,1.01952301633,0,2.194357367,0,
Barchampe Lake,Pollen,30.622222,-83.253889,0,0,0,0,0,0,0,0,0,0,0,0,0,0,0,0,0,0,0,0,0,0.4907393952,
Battaglia Bog,Pollen,41.143889,-81.328611,0,0,0,0,0,0.595238095,0,0,0,0,0,0,0,0,0,0,0,0,0,0,0,0,
Bechan Cave,Pollen,37.36666667,-110.8666667,0,0,0,0,0,0,0,3.7692021125,3.204189334,2.232992441,0.986842105,0,1.662049861,3.116147309,0,6.02739726,5.6463095515,5.94488446467,7.809006707,3.420256762,3.8818944845,2.949061662,
Beckman Lake,Pollen,45.425,-93.183333,0,0,0,0,0,0,0,0,0,0,0,0,0.288184438,0,0,0,1.020408163,0,0,0,0,0,
Beef Pasture,Pollen,37.416667,-108.15,0,0,0,0,0,0,0,0,0,0,0,0,0,0,0,0,0,0,0,0.17921147,1.8136239376,1.54028436,
Biggsville [Cessford Quarry],Pollen,40.855556,-90.88,0,0,0,0,0,0,0,0,0,0,0,0,0,0,0,0,0,0,0,0,0,0,
Big Pond,Pollen,39.766667,-78.55,0,0,0,0,0,0,0,0,0,0,0,1.664008683,0,0.298507463,0.293965294,0.595238095,0.29154519,0,0,0,0,0.165562914,
Billy's Lake,Pollen,46.27058,-94.551555,0,0,0,0,0,0,0,0,0,0,0,0,0,0,0,0,0,2.419354839,1.9844005502,2.1035011385,1.7134386447,1.194841914,
Bob Black Pond,Pollen,34.323611,-84.868056,1.298701299,1.17559494967,0.8132850755,0.657194664,0.825136612,0.64516129,0.746841440333,0.637461075,1.82746133433,2.44648318,0,0,0,0,0,0,0,0,0,0,0,0,
Boriack Bog,Pollen,30.36,-97.126111,0,0,0,0,0,0,0,0,0,0,0,0,0,0,0,0.515463918,0,0,0,0,0,0,
Bossuot Lake,Pollen,44.296475,-93.73571,0,0,0,0,0,0,0,0,0,0,0,0,0,0,0,0,0,0,0,0,0,1.30708180692,
Boundary Pond,Pollen,45.566667,-70.675,0,0,0,0,0,0,0,0,0,0,0,0.613496933,0.2164744105,0.120627262,0,0,0,0,0,0,0,0,
Brown Lake,Pollen,45.783333,-89.483333,0,0,0,0,0,0,0,0,0,0,0,0,0,0,0,0,0,0,0,0,0,0.713697294167,
Brown's Bay  Lake Minnetonka,Pollen,44.95769,-93.545105,0,0,0,0,0,0,0,0,0,0,0,0,0,0,0,0,0,0,0,0,0,0,
Buckbean Fen,Pollen,44.298611,-110.260556,0,0,0,0,0,0,0,0,0,0,0,0,0,0,0,0,0,0,0.751879699,0.347222222,1.0142325085,0,
Buck Lake,Pollen,27.234444,-81.332222,0,0,0,0,0,0,0,0,0,0,0,0,0,5.89566409833,3.252043866,3.13391954122,1.116049136,2.201257862,0.303030303,1.19760479,0.754716981,4.4632308734,
Bucyrus Bog,Pollen,40.797222,-82.933333,0,0,0,0,0,0,0,1.24017674667,0.556917211,1.67362013033,1.1526555885,0.8134842002,0.524934383,0,0,0,0,0,0,0,0,0,
Cahaba Pond,Pollen,33.5,-86.533333,0,0,0,0,0,0,0,0,0,0.923076923,0.990834061333,0.7585937395,0.524800116067,1.05576799833,0,0,0,0,0,0,0,0,
Carbuncle Pond,Pollen,41.7,-71.783333,0,0,0,0,0,0,0,0,0,0,0,0,0,0,0,0,0,0,0,0,0,0.5929633825,
Caribou Bog,Pollen,45.933333,-68.766667,0,0,0,0,0,0,0,0,0,0,0,0,0.364374378,0,0,0.608074446,0,0,0,0,0,0.280898876,
Carp Lake,Pollen,45.918056,-120.880556,0,0,0,0,0,0,0,0,0,0,0,0,0.327868852,0,0,0,0,0,0,0,0,0,
Cheyenne Bottoms,Pollen,38.466667,-98.666667,0,0,0,0,0,0,0,0,0,0,0,0,0,0,0,0,0,0,0,0,0,0,
Chippewa Bog,Pollen,43.123889,-83.241111,0,0,0,0,0,0,0,0,0,0,0,0,0.956937799,0,0,0,0.495049505,0.483091787,0.975609756,0,0,0,
Chatsworth Bog,Pollen,40.675865,-88.324435,0,0,0,0,0,0,0,0,0,0,0.56022409,1.263157895,0,2.2380139055,1.59872714162,0.821701317,1.023323725,2.097522773,2.59563304567,0,0,0,
Clear Pond,Pollen,33.798895,-78.95336,0,0,0,0,0,0.264550265,0.43258832,0,0,0,0,0,0,0,0,0,0,0,0,0,0,0,
Colo Marsh,Pollen,42.02,-93.27,0,0,0,0,0,0,0,0,0,0,0,0,0,0,0,2.736525561,0.945775536,0.914285714,2.835990795,0,0,0,
Conroy Lake,Pollen,46.283333,-67.883333,0,0,0,0,0,0,0,0,0,0,3.370771302,0,0,0,0,0,0,0,0,0,0,0,
Cottonwood Lake,Pollen,45.76101,-96.01988,0,0,0,0,0,0,0,0,0,0,0,0,0,0,0,0,0,0,0,0,0,3.52596303944,
Cranberry Glades,Pollen,38.2,-80.283333,0.33557047,0,0,0,0,3.314917127,0,1.672240803,1.159554731,0,0,0,0,0,0,0,0,0,0,0,0,0,
Crazy Pond,Pollen,47.182465,-95.73495,0,0,0,0,0,0,0,0,0,0,0,0,0,0,0,0,0,0,0,0,0,0.779107159182,
Cub Lake,Pollen,44.7,-84.958333,0,0,0,0,0,0,0,0,0,0,0,0,0,0.24105579,0.23686603,0.2950941815,0.15538474,0.191935856,0.342205569,0.1980974795,0.220750552,0.264484410571,
Cub Creek Pond,Pollen,44.49,-110.283611,0,0,0,0,0,0,0,0,2.9695982625,1.10752688167,0.653594771,0.649350649,0,0.326797386,0,0,0.341296928,0.438596491,0,0.5368904895,0,0.816993464,
Cygnet Lake Fen,Pollen,44.65,-110.6,0,0,0,0,0,7.197943445,0,4.20624152,4.005167959,2.510040161,1.408450704,2.436998339,0.458015267,0.267180497,0.397298695333,0.3585500395,0.654907207333,0.999947501,1.20614511367,0.625,0.4480344605,0.786220413,
Dalton Lake,Pollen,46.173889,-95.915278,0,0,0,0,0,0,0,0,0,0,0,0,0,0,0,0,0,0,0,0,0,2.7726882714,
Davis Lake,Pollen,46.591667,-122.25,3.1579776815,2.97917354267,3.06408272667,2.053928797,0.836820084,2.7082152975,1.07517859929,1.155489873,1.04243320667,1.576939381,0.3432815635,0.2017142675,0.2049927685,0,0,0,0,0,0,0,0,0,
Mohawk Pond,Pollen,41.816667,-73.283333,0,0,0,0,1.367389061,3.539823009,2.643171806,2.20859320867,1.01099057033,1.863354037,0.227048019,0.257069409,0.382409178,0.604505206,0.3415900475,0,0,0.2152073735,0.210970464,0.3149571905,0.449438202,0.577075303667,
Tom Swamp,Pollen,42.516667,-72.2125,0,0,0,0,0,0,0,0,0,0,0,0.184672207,0,0,0,0,0,0,0,0,0,0,
Demont Lake,Pollen,43.48,-85,0,0,0,0,0,0,0,0,0,0,0,0,0,0,0,0,0.487804878,0,0,0,0,0,
Denton Lake,Pollen,45.85,-89.316667,0,0,0,0,0,0,0,0,0,0,0,0,0,0,0,0,0,0,0,0,0,0.979870941625,
Dinkey Meadow,Pollen,37,-119.083333,0,0,0,0,0,0,0,0,0,0,0,0,0,0,0,0,0,0,0,1.587301587,2.912621359,0,
Heart Lake,Pollen,44.180556,-73.9675,0,0,0,0,0,0,0,0,0,0,1.5115780445,0.680004748,0.09057971,0.079744817,0.206696982,0,0,0.152207002,0.214765754667,0.1706871185,0.215873199,0.2579457485,
Eagle Lake Bog,Pollen,44.166667,-71.666667,0,0,0,0,0,0,0,0,0,0,0,1.183431953,0.71942446,0.284100081,0.56980057,0.29154519,0.5555376895,0.282132909,0.250626566,0.304878049,0,0.421743947,
East Twin Lake,Pollen,45.333333,-93.508333,0,0,0,0,0,0,0,0,0,0,0,0,0,0,0,0,0,0,0,0,0,1.04658493,
Eggert Lake,Pollen,44.47012,-93.619035,0,0,0,0,0,0,0,0,0,0,0,0,0,0,0,0,0,0,0,0,0,1.67529281,
Eldora Fen,Pollen,39.936667,-105.58,0,0,0,0,0,0,0,0,0,0,0,0,0,0,0,0,0,0,0,0,0,0.729927007,
Ely Lake,Pollen,41.766667,-75.833333,0,0,0,0,0,0,0,0,0,0,0,0,0,0,0,0,0,0,0,0.336516352333,0.25083451975,0.395574836,
Etivlik Lake,Pollen,68.133333,-156.033333,0,0,0,0,0,0,0,0,0,0,0,0.296735905,0,0,0,0,0,0,0,0,0,0,
Exchequer Meadow,Pollen,37,-119.833333,0,0,0,0,0,0,0,0,10.46931408,0,11.3269664307,0,0,10.2739726,4.054054054,2.310231023,0.767263427,0.327868852,1.6548452835,1.31147541,1.034482759,1.425848117,
Faith Pond,Pollen,47.272455,-96.09405,0,0,0,0,0,0,0,0,0,0,0,0,0,0,0,0,0,0,0,0,0,0.22507355275,
Farquar Lake,Pollen,44.75815,-93.16449,0,0,0,0,0,0,0,0,0,0,0,0,0,0,0,0,0,0,0,0,0,1.86084165322,
Fawn Lake,Pollen,45.4072,-93.0532,0,0,0,0,0,0,0,0,0,0,0,0,0,0,0,0,0,0,0,0,0,1.15044855317,
Ferndale Bog,Pollen,34.405556,-95.808333,0,0,0,0,0,0,0,0,0,0,0,0,0,0,0,0,0,0,0,0,0,10.4358964715,
Floating Island Lake,Pollen,44.55,-107.466667,0,0,0,0,0,0,0,0,0,0,0,0,2.606756462,0.484265910667,0,0,0,0,0.5734315435,0.317460317,0,0,
Forest Lake,Pollen,46.451667,-112.165833,0,0,0,0,0,0,0,0,0,0,0,0,0,0,0,0,1.341802601,0.158478605,0,0,0.352112676,0,
Fox Pond,Pollen,47.165,-95.558333,0,0,0,0,0,0,0,0,0,0,0,0,0,0,0,0,0,0,0,0.4528985505,0.591984729667,0.5867259814,
Gass Lake,Pollen,44.05,-87.733333,0,0,0,0,0,0,0,0,0,1.376146789,0,0,0,0,0,0,0,0.64516129,0,0,0,0,
Glacial Lake,Pollen,64.866667,-166.266667,0,0,0,0,0,0,0,0.334448161,0.27027027,0.313479624,0,0,0,0.303030303,0,0,0,0,0.343642612,0,0,0,
Goldsmith Lake,Pollen,46.583333,-92.466667,0,0,0,0,0,0,0,0,0,0,0,0,0,0,0,0,0,0,0,0,0,0.530900580667,
Gould Pond,Pollen,44.983333,-69.316667,0,0,0,0,0,0,0,0,0,0,0,0,0,0,0,0.315252098667,0,0,0,0,0,1.515288023,
Water Conservation Area 3B  Gumbo Limbo Far Tail,Pollen,25.774722,-80.505556,0,0,0,0,0,0,0,0,0,0,0,0,0,0,0,0,0,0,0,0,0,0,
Hack Pond,Pollen,37.984722,-78.997222,0,0,0,7.006369427,5.501618123,4.8954599765,6.501547988,6.230529595,3.459119497,4.823151125,4.193548387,3.205128205,4.5507619235,0,0,0,0,0,0,0,0,0,
Hay Lake,Pollen,34,-109.425,0,0,0,0,0,0,0,7.920792079,9.061488673,0,0,0,0,0,0,0,0,0,0,0,4.924242424,4.580152672,
Healy Lake,Pollen,64,-144.75,0,0,0,0,0,0,0,0,0,0,0,0,0,0,0.581753642,0.900900901,0.279031756,0.879340942333,0.60768328,0.504915444,0.8836407955,0.294985251,
Hedrick Pond,Pollen,43.75,-110.6,0,0,0,0,0,0,0,0,0,0,0,0,0,0,0,0,0,1.0785762935,0.421140067,0.502759970833,1.03750687283,0,
Jackson Pond,Pollen,37.43255,-85.72462,0,0.294985251,0.284495021,0.28348817,0.286041424,0,0,0,0.867678959,0.641025641,0.227625978333,0.4591433535,1.465968586,0,0,0.235849057,0,0,0.205549846,0.202020202,0.39408867,0.302418755,
Jacob Lake,Pollen,34.333333,-110.833333,0,0,7.284768212,3.783783784,10.15228426,0,7.335907336,16.4874552,14.90384615,12.12121212,0,0,0,0,0,0,0,0,0,0,5.098039216,11.7087164345,
Jewell Site,Pollen,42.26,-93.7,0,0,0,0,0,0,0,0,0,0,0,0,0,0,0,0,0.868306802,2.23880597,0,0,0,0,
Spiritwood Lake,Pollen,47.074695,-98.5866,0,0,0,0,0,0,0,0,0,0,0,0,0,0,0,0,0,0,0,0,1.212121212,2.84074451425,
Joe Lake,Pollen,66.766667,-157.216667,0,0,0,0,0,0,0,0,1.121495327,0.2871400525,0.453216985,0.286532951,0,0,0,0,0,0,0,0,0,0,
Johnson River Bog,Pollen,63.711111,-144.65,0,0,0,0,0,0,0,0,0,0,0,0,0,0,0,0,0,0,0.384615385,0,0,0,
Jones Lake,Pollen,45.428085,-93.981475,0,0,0,0,0,0,0,0,0,0,0,0,0,0,0,0,0,0,0,0,0,1.867572156,
Kaiyak Lake,Pollen,68.15,-161.416667,0,0.327868852,0.446428571,0.396825397,0.3761946255,0,0,0,0,0,0,0,0,0,0,0,0,0,0,0,0,0,
Kegan Lake,Pollen,44.75836,-93.11674,0,0,0,0,0,0,0,0,0,0,0,0,0,0,0,0,0,0,0,0,0,2.26108849743,
Kirk Lake,Pollen,48.233333,-121.616667,0,0,0,0,0,0,0,0,0,0,0,0.3820039465,0,0,0,0,0,0,0,0,0,0.6215538845,
Kitchner Lake,Pollen,45.666667,-87.455,0,0,0,0,0,0,0,0,0,0,0.995024876,2.222222222,0,0.21141649,0.2704328875,0.3048835245,0,0.2819138375,0.831024931,0.255754476,0.581395349,0.6481219548,
Kollioksak,Pollen,66.966667,-156.45,0,0,0,0,0,0,0,0,0,0,0,0,0.320141039,0.290697674,0,0,0,0.273224044,0,0,0,0,
Kotiranta Lake,Pollen,46.72,-92.62,0,0,0,0,0,0,0,0,0,0,0,0,1.078431373,0,0,0,0,0,0,0,0,0,
Ladd Lake,Pollen,41.416667,-84.75,0,0,0,0,0,0,0,0,0,0,0,0,0,0.4261647495,1.005025126,1.1300872095,0.386427423333,0.92904068975,12.168177594,0,0,0,
Lake Sixteen,Pollen,45.6,-84.316667,0,0,0,0,0,0,0,0,0,0,0,0,0.194174757,0,0,0,0.1953125,0,0,0,0,0,
Lake Ann,Pollen,45.425,-93.6875,0,0,0,0,0,0,0,0,0,0,0,0.961538462,3.703703704,0,0,0,2.89130802,0,0,0,0,0,
Langdale Pond,Pollen,30.641667,-83.195,0,0,0,0,0,0,0,0,0,0,0,0,0,0,0,0,0,0,0,0.166666667,0,0.130548303,
Lily Lake,Pollen,43.766667,-110.316667,0,0,0,0,0,0,0,0,0,0,0,0.2251319004,0,0.101936799,0.2593621156,0.344210381429,0.338245446143,0.4363706239,0.375819230778,0.775582475526,0.838333285125,0.317458628259,
Lake of the Clouds,Pollen,48,-91.116667,0,0,0,0,0,0,0,0,0,0,4.3791075755,1.801934905,0.71118441675,0.485436893,0,0,0,0,0,0,0,0,
Lockport Gulf Section,Pollen,43.166667,-78.716667,0,0,0,0,0,0,0,0,0,0,0,4.4603960395,2.5025252525,1.0,0,0,0,0,0,0,0,0,
Long Lake,Pollen,36.005556,-108.833333,0,0,0,0,0,0,2.920962199,0,0,0,0,0,0,0,0,0,0,0,0,0.887516996,0.71237756,1.25870177414,
Loon Pond,Pollen,45.033333,-68.2,0,0,0,0,0,0,0,0,0,1.694915254,0.564971751,0,0,0,0,0,0,0,0,0,0,0,
Lost Pond,Pollen,44.246944,-71.251389,0,0,0,0,0,0,0,0,1.488095238,1.46216140133,1.743062576,1.04366788567,1.030927835,0.374730457667,0,0,0.477326969,0.276625173,0.803212851,0.3187251,0.239520958,0.6705073215,
Lake Louise,Pollen,30.725,-83.258333,0,0,0,0,0,0,0,0,0,0,0,0,0,0,0,0,0,0,0,0,0,0,
Lake Mabel,Pollen,44.36044,-93.61535,0,0,0,0,0,0,0,0,0,0,0,0,0,0,0,0,0,0,0,0,0,1.8544659645,
Mansell Pond,Pollen,45.041667,-68.733333,0,0,0,0,0,0,0,0,0,0,0,0,0,0,0,0,0.085957925,0,0,0,0,0,
Mashapaug Pond,Pollen,41.783333,-71.433333,0,0,0,0,0,0,0,0,0,0,0,0,0,0,0,0,0,0,0,0,0,0.811183617,
McCraney Lake,Pollen,47.17087,-95.70266,0,0,0,0,0,0,0,0,0,0,0,0,0,0,0,0,0,0,0,0,0,0.688187641667,
McNearny Lake,Pollen,46.427222,-84.958333,0,0,0,0,0,0,0,0,0,0,0,0,0,0,0,0,0,0,0,0,0,0.828235147343,
Medicine Lake,Pollen,44.98419,-97.350125,0,0,0,0,0,0,0,0,0,0,0,2.34377354917,7.85998073143,0,0,0,0,0,0,0,0,0,
Lake Mendota,Pollen,43.1,-89.416667,0,0,0,0,0,0,0,0,0,0,0,0.305810398,0.898203593,0.849858357,1.31745043133,0.828456302,0,0.952570547,0.668896321,2.209944751,1.730103806,1.45971529033,
Lake Minnie,Pollen,47.244755,-95.007715,0,0,0,0,0,0,0,0,0,0,0,0,0,0,1.372597149,1.71975994533,2.590673575,1.6793863705,1.655629139,0.600600601,0.724637681,0,
Montezuma Well,Pollen,34.6492,-111.75225,0,0,0,0,0,0,0,0,0,0,0,0,0,0,0,0,0,0,0,9.745762712,0,0,
Mud Lake,Pollen,44.226105,-93.829815,0,0,0,0,0,0,0,0,0,0,0,0,0,0,0,0,0,0,0,0,0,1.35724494243,
Munday Creek,Pollen,60.033333,-141.966667,0,0,0,0,0,0,0,0,0,0,0,0,0,0,0,0,0,0,0.3152428615,0,0,0,
Myrtle Lake,Pollen,47.982605,-93.3853,0,0,0,0,0,0,0,0,0,0,0,0,0,0,0,0.106951872,0,0,0,0,0,0,
Natural Lake,Pollen,34.663333,-95.386111,0,0,0,0,0,0,0,0,0,0,0,0,0,0,0,0,0,0,0,0,13.66120219,0,
Nelson Pond,Pollen,46.40707,-92.686585,0,0,0,0,0,0,0,0,0,0,0,0,0,0,2.3324394608,1.52842053763,1.9586816668,0,0,0,0,0,
Neville Marsh,Pollen,40.545833,-83.833333,0,0,0,0,0,0,1.3911146295,0.295857988,0,0,0,0,0,3.448275862,0,0,0,0,0,0,0,0,
Nichols Brook Site,Pollen,42.544722,-78.478889,0,0,0,0,0,0,0,0,0,2.03975976517,1.990049751,0,0,0,0,0,0,0,0,0,0,0,
Niliq Lake,Pollen,67.866667,-160.433333,0,0,0,0,0,0,0,0.733496333,0.915627857,0.865544633,0.483501326,0.5626134305,0.8576716092,0.846277493,0.581395349,0.261780105,0.643086817,0.484799282,0.7155035925,0,0.555555556,0,
Nonconnah Creek [TN-1],Pollen,35.08333333,-89.91666667,0,0,0,0,0,0,0,0,0,0,0,0,0,0,0,0,0,0,0,0,0,0,
Water Conservation Area 3B  Nuthouse Head,Pollen,25.889167,-80.5125,0,0,0,0,0,0,0,0,0,0,0,0,0,0,0,0,0,0,0,0,0,0,
Lake West Okoboji,Pollen,43.333333,-95.2,0,0,0,0,0,0,0,0,0,0,0,0,0,0,0,0,0,0,5.9491594535,0,0,0,
Old Field,Pollen,37.116667,-89.833333,0,0,0,0,0,0,0,0,0,0,0,0,0,2.173913043,3.356775596,4.3628531355,0,0,0,0,0,0,
Lake Onamia,Pollen,46.068333,-93.68,0,0,0,0,0,0,0,0,0,0,0,0,0,0,0,0,0,0,0,0,0.1259788125,0.117528560588,
Lake Ontario  Rochester Basin,Pollen,43.51,-76.9,0,0,0,0,0,0,0,0,0,0,0,0,0,0,0,0,0,0,0,0,0,0,
Lake Ontario  Mississauga Basin,Pollen,43.556667,-78.15,0,0,0,0,0,0,0,0,0,0,0,0,0,0,0,0,0,0,0,0,0,0,
Otto Mielke Lake,Pollen,45.933333,-89.625,0,0,0,0,0,0,0,0,0,0,0,0,0,0,0,0,0,0,0,0,0,0.723397271,
Panther Run Pond,Pollen,40.8,-77.416667,0,0,0,0,0,0,0,0,0,0,0,0,0,0,2.675585284,0,0,0,0,0,0,0.303030303,
Third Lake,Pollen,48.108333,-92.016667,0,0,0,0,0,0,0,0,0,0,0,0,0,0,0,0,0,0,0,0.36900369,0,0.248756219,
Ped Pond,Pollen,67.2,-142.066667,0,0,0,0,0,0,0,0,0,1.42557652,1.420734438,0.495049505,0,0,0.265251989,0,0,0.1953125,0,0,0,0.227790433,
Pilot Mound Site,Pollen,42.16,-93.9,0,0,0,0,0,0,0,0,0,0,0,0,1.453488372,0,0,0,1.048492792,1.339285714,2.819237148,2.158273381,1.416683719,1.668984701,
Portage Lake,Pollen,47.081,-94.113,0,0,0,0,0,0,0,0,0,0,0,0.259067358,0,0,0.176366843,0.2118189615,0.302316184,0,0,0.300207039,0.6857625555,0.486886556333,
Potts Mountain Pond,Pollen,37.6,-80.133333,0,0,0,0,0,0,0,0,0,0,11.1189336335,12.6763135833,7.1727146506,0,0,0,1.328903654,0,0.668896321,0.664451827,1.290322581,0.326797386,
Puyuk Lake,Pollen,63.5,-162.2,0,0,0,0,0,0,0.675745089,0.6402770095,0.946565509,0.3140344305,0.602409639,0.596515069333,0.6378742945,0.529480567667,0,0,0,0.321543408,0,0,0,0,
Quicksand Pond,Pollen,34.326389,-84.865278,0,0,0,0,0,0,0,0,0,0,0,0,0,0,0,0,0,0,0,0,0,0,
Ranger Lake,Pollen,67.147222,-153.65,0,0,0,0,0,0,0,0,1.43045812567,1.015228426,0,0.238095238,0.310559006,0,0.306751353,0.364768644333,0.343071767,0,0,0.595404931,0.576521818,0.837079716333,
Redondo Lake,Pollen,67.683333,-155.033333,0,0,0,0,0,0,0,0,0,0,0,0,0,0,0,0,0,0.613496933,0,0.320512821,0.432900433,0.317460317,
Reichow Pond,Pollen,47.190745,-95.77364,0,0,0,0,0,0,0,0,0,0,0,0,0,0,0,0,0,0,0,0,0,1.20501769121,
Rholl Lake,Pollen,47.6,-96.166667,0,0,0,0,0,0,0,0,0,0,0,0,0,0,0,0,0,0,0,0,0,1.66479541779,
Rhule Fen,Pollen,39.953611,-85.741667,0,0,0,0,0,0,0,0,0.479616307,1.841025641,1.59327417333,1.1161828105,1.1337221155,0,0,0,0,0,0,0,0,0,
Rogers Lake,Pollen,41.3525,-72.29915,0,0,0,0,0,0,0,0,0,0,0,0,0,0,0,0,0,1.090188305,0,0,0,0,
Rosebud,Pollen,43.229167,-100.848611,0,0,0,0,0,0,0,0,0,1.805054152,0,0,0,0,0,0,0,0,0,0,0,0,
Ruppert Lake,Pollen,67.07084,-154.244985,0,0,0,0,0,0,0,0,0.262467192,0.586114047,0,0.289392352,0.277555591333,0,0.2790000004,0,0,0,0,0.23174971,0,0,
Rutz Lake,Pollen,44.87083,-93.858975,0,0,0,0,0,0,0,0,0,0,0.952380952,0,0.710479574,2.5,0,0,0,0,0,1.740812379,3.282996286,1.663585952,
Sagehen Marsh,Pollen,37.473889,-108.503889,0,0,0,0,0,0,0,0,0,0,0,0,0,0,0,0,0,0,0,0,0,1.934235977,
San Joaquin Marsh,Pollen,33.658333,-117.858333,0,0,0,0,0,0,0,0,0,0,0,0,0,0,0,9.17155782529,4.53496187771,12.3045311193,15.23178808,6.92604292275,4.5609317986,2.837455655,
San Agustin Plains,Pollen,33.866667,-108.25,0,0,0,0,0,0,0.200400802,0.877192982,0,0.2,0.286944046,0,0,0,0,0,0,0,0,0,0,5.284552846,
Screaming Yellowlegs Pond,Pollen,67.583333,-151.416667,0,0,0,0,0,0,0,0,0,0.475059382,0,0,0,0,0,0,0,0,0,0,0,0,
Seagull Lake,Pollen,68.266667,-145.216667,0,0,0,0,0,0,0,0,1.312586006,0,0,0,0.263157895,0,0,0,0.574187655,0.442477876,0.396862819,0.5037216135,0,0.4341938975,
Sheley Pond,Pollen,31.080833,-81.636944,0,0,0,0,0,0,0,0,0,0,0,0,0,0,0,0,0,0,0,0,0,0.348821930333,
Silver Lake,Pollen,44.895835,-94.20414,0,0,0,0,0,0,0,0,0,0,0,0,0,0,0,0,0,0,0,0,0,2.79295843967,
Sinkhole Pond,Pollen,43.966667,-70.35,0,0,0,0,0,0,0,0,0,0,0,0,0.475059382,0,0,0,0,0,0,0,0,0,
Smoot Lake Bog,Pollen,40.205556,-82.445833,0,0,0,0,0,0,0,1.557632399,2.352941176,1.361664665,1.336898396,0.401606426,0.490196078,0,2.380952381,0,0,0,0,0,0,0,
Spectacle Lake,Pollen,45.572222,-93.408333,0,0,0,0,0,0,0,0,0,0,0,0,0,0,0,0,0,0,0,0,0,0.855456544,
Spirit Lake,Pollen,46.47,-86.958333,0,0,0,0,0,0,0,0,0,0,3.100923374,0.7001079395,0.506329114,0.6755736715,0.282485876,0.493536213,0,0.384605776333,0.624611316,0,0.3609128735,0.460094942,
Splains Gulch,Pollen,38.832778,-107.068889,0,0,0,0,0,0,0,0,0,4.817518248,3.968253968,10.0,0,0,0,0,0,0,3.523489933,0,0,0,
Spring Lake (US:Pennsylvania),Pollen,41.673889,-76.35,0,0,0,0,0,0,0,0,0,0.505867298667,0.519480519,0.375075773,0,0,0,0,0,0,0,0,0,1.302931596,
Starkweather Pond,Pollen,37.6625,-119.0675,0,0,0,0,0,0,0,0,0,0,0,4.25199142175,0.741319597,1.045296167,0,0,0,0.309597523,0,0.561876668,0,0.6993810895,
Stotzel-Leis Site,Pollen,40.216667,-84.689444,0,0,0,0,0,0,0,0,0.581395349,0,0,0,0,0,4.580152672,0,0,0,0,0,0,0,
Sunfish Lake,Pollen,44.874722,-93.1,0,0,0,0,0,0,0,0,0,0,0,0,0,0,0,0,0,0,0,0,0,1.682692308,
Swan Lake,Pollen,41.72106,-102.499255,0,0,0,0,0,0,0,0,0,0,0,0,3.19640676767,2.536482121,1.181283435,4.19436530533,1.444283297,0.8093225055,4.9466830354,3.17164623825,3.177862305,5.114638448,
Szabo Pond,Pollen,40.4,-74.483333,0,0,0,0,0,0,0,0,0,0,2.283065739,3.6968681825,3.973509934,0,0,0,0,0,0,0,0,0,
Tangle Lakes,Pollen,63.029444,-146.063333,0,0,0,0,0,0,0,0,0,0,0,0,0,0,0,0,0,0.4564604415,0.419332421875,0.29958108525,0.777137488,0.601182498,
Taupawshas Bog,Pollen,41.275,-70.058333,0,0,0,0,0,0,0,0,0,0,0,0,2.721088435,0,0,0,0,0,0,0,0,0,
Taylor Creek Site 2,Pollen,25.205556,-80.643889,0,0,0,0,0,0,0,0,0,0,0,0,0,0,0,0,0,0,0,0,2.30482190033,8.23134172143,
Thompson Pond,Pollen,47.19482,-96.09332,0,0,0,0,0,0,0,0,0,0,0,0,0,0,0,3.11243672475,3.797916898,3.08048978667,4.64357226743,5.00646572425,5.01934593425,3.5288495395,
Tiinkdhul Lake,Pollen,66.583333,-143.15,0,0,1.226993865,0.906344411,0,0,1.533742331,2.857142857,0.664451827,0.766632894,1.04418380867,1.2355212355,0.716925852,0.7584195516,0.303313244667,0.62305296,0,0.366923882333,0.272804774,0.474443902333,0,0.190114068,
Lake Tulane,Pollen,27.583333,-81.5,0,0,0,0,0,0,0,0,0,0,0,1.838235294,1.62835249,0,0,0,0,0,0,0,0,0,
Twin Lakes,Pollen,37.469444,-108.1025,0,0,0,0,0,0,0,0,0,0,0,0,0,0,0.60362173,0.882352941,1.48473203967,1.34635701033,1.73520414975,0,0,0,
Unknown Pond,Pollen,45.6,-70.633333,0,0,0,0,0,0,0,0,0,0.613496933,0.328947368,0.638977636,0,0.415800416,0.2836629805,0.222222222,0.2067478435,0.5288246685,0.2241398355,0.2828108525,0.251889169,0,
Utricularia Lake,Pollen,35.968889,-108.808333,0,3.631961259,0,0,2.621722846,3.64729508867,2.258489823,3.3403762634,2.989130435,0,0,0,0,0,0,0,0,0,0,0,1.82967137571,1.23155076867,
Volo Bog,Pollen,42.35154,-88.18475,0,0,0,0,0,0,0,0,0,0,0,0,0,0,0,0,0,0,0,0,1.53643495533,0,
Wolf Creek,Pollen,46.116667,-94.116667,0,0,0,0,0,0,0,0,0,0,0.105152471,0,0,0,0,0,0,0,0,0,0,0,
Wolsfeld Lake,Pollen,45.005,-93.5727,0,0,0,0,0,0,0,0,0,0,0,0,0,0,0,0,0,0,0.12399256,0.135226504,0,0.152663613,
Head Lake,Pollen,37.7,-105.5,0,0,0,0.4784689,0,0,0,0,0,0,0,0,0.3152641205,0,0,0,0,0,0,0,0,0,
Como Lake,Pollen,37.55,-105.5,0,0,0,0,0,0,0,0,0,3.4322044025,2.548978302,1.10161571867,1.9868421055,1.1067176566,2.820191754,2.112815012,2.57904262333,2.0197740115,2.98013245,3.7294988235,3.050108932,1.883705206,
Aino Pond,Pollen,42.679722,-71.926667,0,0,0,0,0,0,0,0,0,0,0,0,0,0,0,0,0,0,0,0,0.362318841,0,
Dead Frog Pond,Pollen,42.574444,-72.508611,0,0,0,0,0,0,0,0,0,0,0,0,0,0,0,0,0,0,0,0,0.6336933155,0.699137101,
Roberts Creek F-45,Pollen,42.986111,-91.500278,0,0,0,0,0,0,0,0,0,0,0,0,0,0,0,0,0,0.054854635,0,0,0,0,
Roberts Creek AB34,Pollen,42.986111,-91.500278,0,0,0,0,0,0,0,0,0,0,0,1.604278075,0,0,0,0,0,0,0,0,0,0,
Ocheda Lake,Pollen,43.56928,-95.59275,0,0,0,0,0,0,0,0,0,0,0,0,0,0,0,0,0,0,0,0,0,6.80245396057,
Deans Lake,Pollen,44.77528,-93.44692,0,0,0,0,0,0,0,0,0,0,0,0,0,0,0,0,0,0,0,0,0,0.37056723725,
Union Lake,Pollen,45.81725,-95.34235,0,0,0,0,0,0,0,0,0,0,0,0,0,0,0,0,0,0,0,0,0,2.4723084125,
Irwin Smith Bog,Pollen,45.0265,-83.61,0,0,0,0,0,0,0,0,0,0,0,0,0,0,0.947867299,0.825858801667,1.0206292724,1.040144157,0.917431193,0.847457627,0,0.452488688,
Oak Glen Lake,Pollen,43.92945,-93.0815,0,0,0,0,0,0,0,0,0,0,0,0,0,0,0,0,0,0,0,0,0,2.84698567875,
Elevenses Lake,Pollen,46.3815,-91.4935,0,0,0,0,0,0,0,0,0,0,0,0,0,0,0,0,0,0,0,1.026138452,0.4312816495,0.614992040923,
Eska Lake,Pollen,45.19145,-90.608,0,0,0,0,0,0,0,0,0,0,0,0,0,0,0,0,0,0,0,0.53038035,0.631097700818,0.513409538933,
Glimmerglass Lake,Pollen,46.21517,-89.32082,0,0,0,0,0,0,0,0,0,0,0,0,0,0.181818182,0.182481752,0,0.205761317,0,0,0,0,0,
Bass Lake,Pollen,45.19932,-94.878745,0,0,0,0,0,0,0,0,0,0,0,0,0,0,0,0,0,0,0,0,3.4702724005,3.0828297536,
Lake Sallie,Pollen,46.77186,-95.896225,0,0,0,0,0,0,0,0,0,0,0,0,0,0,0,0,0,0,0,0,0,0.744465399846,
Tower Lake,Pollen,46.542635,-86.037795,0,0,0,0,0,0,0,0,0,0,0,0,0,1.181102362,0,0,0,0,0,0,0,0,
Browns Island,Pollen,38.04217,-121.86795,0,0,0,0,0,0,0,0,0,0,0,0,0,0,0,0,0,0,0,0.555555556,0.595238095,0.510256279,
Big Reed Pond Hollow,Pollen,46.35065,-69.0517,0,0,0,0,0,0,0,0,0,0,0,0,0,0,0,0,0,0,0,0,0,0.140081678,
Amber Lake,Pollen,43.60715,-94.473645,0,0,0,0,0,0,0,0,0,0,0,0,0,0,0,0,0,0,0,0,0,2.29919182985,
Crystal Lake,Pollen,42.234015,-88.357005,0,0,0,0,0,0,0.292785619,0,0.3217436695,0,0,0,0,0,0.292825769,0.4312921235,0,0,0,0,0,0,
Isle au Haut North Hollow,Pollen,44.0651,-68.6354,0,0,0,0,0,0,0,0,0,0,0,0,0,0,0,0,0,0,0,0,0.226500566,0.203873598,
Isle au Haut South Hollow,Pollen,44.031825,-68.630365,0,0,0,0,0,0,0,0,0,0,0,0,0,0,0,0,0.253164557,1.05470377025,1.1834366895,0.823892670333,1.77939567075,5.39244551144,
Roque Island Hollow,Pollen,44.573075,-67.530695,0,0,0,0,0,0,0,0,0,0,0,0,0,2.493875551,0.508905852,2.010050251,0,0,0,0,0.303951368,0.333664514,
Siesta Lake,Pollen,37.8505,-119.659945,0,0,0,0,0,0,0,0,0,0,0,0,0,0,0,0,1.419878296,0,0,0,0,0,
Lake Mina,Pollen,45.89346,-95.47561,0,0,0,0,0,0,0,0,0,0,0,0,0,0,0,0,0,0,0,0,0,1.30404679579,
Deuce Lake,Pollen,64.86412,-147.94008,0,0,0,0,0,0,0,0,0,0,0,0,0,0,0,0,0,0,0,0,0.178890877,0,
Hoodoo Lake,Pollen,46.320235,-114.65153,0,0,0,0,0,0,0,0,0,0,0,0,0,0,0,0,0,0,0,0,0,0.471698113,
Deep Pond,Pollen,41.739125,-69.992095,0,0,0,0,0,0,0,0,0,0,0,0,0,0,0,0,0,0.308641975,0,0,0,0,
Elk Lake,Pollen,47.18919,-95.21787,0,0,0,0,0,0,0,0,0,0,0,0,0,0,0,0,0,0,0,0,0,0.748220345667,
South Dansville Buried Peat,Pollen,42.49185,-77.641,0,0,0,0,0,0,0,0,0,0,0,0.724637681,0,0,0,0,0,0,0,0,0,0,
Chesapeake Bay (MD99-2207),Pollen,38.03027778,-76.21444444,0,0,0,0,0,0,0,0,0,0,0,0,0,0,0.92879257,0,0,0,0,0,0,0,
Chesapeake Bay (MD99-2209),Pollen,38.88611111,-76.39444444,0,0,0,0,0,0,0,0,0,0,0,0,0,0,0.407534737,0,0,0,0,0,0,0,
Titaluk River Exposure 2,Pollen,69.709,-155.691,0,0,0,0,0,0,0,0,0,0,0,0,0,1.388888889,0,0,0,0,0,0,0,0,
Caddo Creek (Core 1),Pollen,32.043605,-95.505225,0,0,0,0,0,0,0,0,0,0,0,0,0,0,0,0,0,0,0,0,0,1.388888889,
Caddo Creek (Core 3),Pollen,32.045915,-95.50621,0,0,0,0,0,0,0,0,0,0,0,0,0,0,0,0.471698113,0,0,0,0,12.5,0.956937799,
St. Clair Lake,Pollen,46.80338,-95.88068,0,0,0,0,0,0,0,0,0,0,0,0,0,0,0,0,0,0,0,0,0,0.322580645,
Cowles Bog,Pollen,41.6355,-87.0945,0,0,0,0,0,0,0,0,0,0,0,0,0,0,0,0.852272727,0,0.240963855,0,0.850501491,0,0,
Ozawindib Lake,Pollen,47.22823,-95.27284,0,0,0,0,0,0,0,0,0,0,0,0,0,0,0,0,0,0,0,0,0,0.222114134333,
Tamarack Lake,Pollen,44.87385,-93.63464,0,0,0,0,0,0,0,0,0,0,0,0,0,0,0,0,0,0,0,0,0,1.39216375875,
Byron-Bergen Swamp (Site 2),Pollen,43.09816,-78.002715,0,0,0,0,0,0,0,0,0,0,0.630914826,0,0.295857988,0.993377483,0.715990453,0.986842105,0.589970501,0.791804345667,0.435283171,0.318471338,0.310559006,6.664668866,
Byron-Bergen Swamp (Site 1),Pollen,43.09791,-78.014515,0,0,1.041666667,0,1.226993865,0.276243094,0,0,0,0,0,0,0,0,0,0,0,0,0,0,0,0,
Ridge and Slough (02-05-21-2),Pollen,25.8285,-80.768,0,0,0,0,0,0,0,0,0,0,0,0,0,0,0,0,0,0,1.4708488395,1.0535926855,0,4.2321796265,
Flycatcher Basin,Pollen,41.015,-121.573,0,0,0,0,0,0,0,0,0,0,0,0,0,0,100.0,100.0,0,0,0,0,0,0,
Las Flores Arroyo,Pollen,33.291,-117.4605,0,0,0,0,0,0,0,0,0,0,0,0,0,0,0,0,0,0,48.148919805,89.67391304,80.72727273,71.77700348,
Deep Lake,Pollen,47.683805,-95.398395,0,0,0,0,0,0,0,0,0,0,0,0,0,0,0,0,1.95599022,2.240896359,1.79929876633,2.304508075,0.6308517306,0,
Jan Lake,Pollen,63.56466,-143.91772,0,0,0,0,0,0,0,5.39900033633,6.1196145125,5.38033153425,3.56269565157,0.419848513,0.249376559,0.267379679,0.282485876,0,0,0.27100271,0,0,0.27700831,0.424176051,
Big Cypress (core 03-9-16-3),Pollen,25.7045,-80.873,0,0,0,0,0,0,0,0,0,0,0,0,0,0,0,0,0,0,0,0,0,1.801801802,
Lake Shelby,Pollen,30.260065,-87.66485,0,0,0,0,0,0,0,0,0,0,0,0,0,0,0,0,0.72565216,0.5408230612,0.7601334355,0,0.8751864,2.52859013533,
Laysan Island Lake,Pollen,25.768,-171.7328,0,0,0,0,0,0,0,0,0,0,0,0,0,0,0.290697674,0,0,0,0,0,0,0,
McMurray Lake,Pollen,39.4604,-120.64864,0,0,0,0,0,0,0,0,0,0,0.886859245429,1.53831889575,0.98772781125,0.753227154,0.8285965345,1.2254030655,1.160541586,1.033057851,0.6240201245,0.6055236465,1.091277953,0.845319065,
Nutella Lake,Pollen,63.052,-147.39172,0,0,0,0,0,0,0,0,0,0,0,0,0,0,0.250626566,0,0.257731959,0,0.251661918,0.253807107,0.260416667,0.4745140055,
Prospect Hill II,Pollen,42.5625,-72.18,0,0,0,0,0,0,0,0,0,0,0,0,0,0,0,0,0,0,0,0,0,0.461782069,
Santa Barbara Basin (Core 3H-01),Pollen,34.278,-119.97,0,0,0,0,0,0,4.876893939,3.06427736275,4.9840661155,0,0,0,0,0,0,0,0,0,0,0,0,0,
Tulare Lake,Pollen,36.052,-119.78,0,0,0,0,0,0,0,0,0,0,0,0,0,0,0,14.6567718,0,0,0,0,0,0.596548914,
Divers Lake,Pollen,43.04099,-78.399245,0,0,0,0,0,0,1.257861635,0,1.1288866865,0.924792686333,0,0,0.17905103,0,0,0,0,0,0,0,0,1.319509896,
Little Willow Lake,Pollen,40.4115,-121.389935,0,0,0,0,0,1.339285714,0,1.509454496,0.442477876,0.5755634785,0.522995412,1.0966728545,0.735294118,0.97793845,0.653594771,0.889230648,0.557098465,0.561150819333,0.597521643,0.413028732667,0.307746174,0,
Ruby Marsh,Pollen,41.13395,-115.5049,0,0,0,0,0.278551532,0.314465409,0,0,0,0,0,0,0.240963855,0.544959128,0,0,0,0.972762646,0.612244898,0,0,0,
Binnewater Pond,Pollen,41.40935,-74.551335,0,0,0,0,0,0.203665988,0,0,0,0,0,0,0,0,0,0,0,0,0,0,0,0,
Pawelski Farm,Pollen,41.33395,-74.43065,0,0,0,0,0,0,0.230946882,0,0,0,0,0,0,0,0,0,0,0,0,0,0,0,
China Camp,Pollen,38.0075,-122.4933333,0,0,0,0,0,0,20.25316456,19.586374694,3.131732227,3.86443886767,6.060606061,8.46374551967,3.8575797295,10.85271318,5.013986014,3.448275862,3.626943005,3.2815831555,12.0330679735,4.346535722,3.5347593585,11.6405537702,
Mountain Lake,Pollen,37.78826,-122.470765,0,0,0,0,0,0,0,0,0,0,0,0,0,0,0,0,0,0,0,0,4.508603636,4.476120345,
Capitola Lake,Pollen,45.519575,-89.55507,0,0,0,0,0,0,0,0,0,0,0,0,0,0,0.267379679,0,0,0,2.380952381,0,0.315457413,0,
St. Lawrence Section 2,Pollen,63.66722222,-171.5479167,0,0,0,0,0,0,0,0,0,0,0,0,0,0,3.571428571,0.682593857,0.377358491,4.179104478,1.1085092145,2.33513124267,0,0,
Windmill Lake,Pollen,63.6589,-148.80525,0,0,0,0,0,0,0,0,0,0.319488818,0,0,0,0,0,0,0,0,0,0,0,0,
Zagoskin Lake,Pollen,63.44847,-162.10838,0,0,0,0,0.578034682,0.895522388,0.4605975065,0,0.294985251,0.507614213,0.487785236667,0.313479624,0.5633716434,0.5716591532,0,0,0.318471338,0,0.310559006,0.621118012,0,0,
Steel Lake,Pollen,46.973155,-94.68138,0,0,0,0,0,0,0,0,0,0.25,0.325732899,0.452488688,0,0.2584062755,0.378071834,1.0797586715,1.1355102654,0.829706824333,0,0,0,0,
Little Swift Lake,Pollen,60.216475,-159.76567,0,0,0,0,0,0,0,0,0.888463209667,0.497512438,0.526315789,0,0.526315789,0,0,0.483091787,0,0,0,0.5674858825,0,0,
McCall Glacier,Pollen,69.29503611,-143.7900306,0,0,0,0,0,0,0,0,0,0,0,0,0,0,0,0,0,0,0,0,22.22222222,0,
Kealia Pond,Pollen,20.79429,-156.475355,0,0,0,0,0,0,0,0,0,0,0,0,0,0,0,0,0,0,0,0,0,7.63214671,
Lost Swamp,Pollen,42.82814,-72.4211,0,0,0,0,0,4.296435272,1.2463768115,0.751105273333,2.355815637,3.090079055,1.21336512633,0.652528548,0,0.214592275,0,0.23364486,0.3488329855,0.389483934,0,0.3800170475,0.2670546922,0.526107193375,
Chalco Lake,Pollen,19.5,-99,0,0,0,0,2.272727273,0,0,0,0,0,0,0,0,0,0,0,0,0,0,0,0,0,
Lake Patzcuaro,Pollen,19.583333,-101.583333,0,0,0,0,0,0,0,0,0,0,0,0,0,0,0,0,0,0,0.327868852,0.940438871,0,0,
