Site,Type,Latitude,Longitude,22000-21000,21000-20000,20000-19000,19000-18000,18000-17000,17000-16000,16000-15000,15000-14000,14000-13000,13000-12000,12000-11000,11000-10000,10000-9000,9000-8000,8000-7000,7000-6000,6000-5000,5000-4000,4000-3000,3000-2000,2000-1000,1000-present
Selby,Mammals,39.866666666666674,-102.25,0,0,0,0,0,0,0,0,0,0,0,0,0,0,0,0,0,0,0,0,0,0,
Lamb Springs [5DA201],Mammals,39.5,-105.06666666666668,0,0,0,0,0,0,0,0,8.0,0,8.0,0,0,0,0,0,0,0,0,0,0,0,
Lubbock Lake [41LU1],Mammals,33.62041666666667,-101.89208333333336,0,0,0,0,0,0,0,0,0,0,0,0,0,0,0,0,0,0,0,0,0,0,
Dutton,Mammals,39.61666666666666,-102.25,0,0,0,0,0,0,0,0,0,0,0,0,0,0,0,0,0,0,0,0,0,0,
Rawlins Camelops Locality,Mammals,41.75,-107.11666666666666,0,0,0,0,0,0,0,0,0,0,0,0,0,0,0,0,0,0,0,0,0,0,
Stauffer Chemical Plant,Mammals,41.36666666666667,-109.5,0,0,0,0,0,0,0,0,0,0,0,0,0,0,0,0,0,0,0,0,0,0,
Greybull Bentonite Pit,Mammals,44.5,-108.0,0,0,0,0,0,0,0,0,0,0,0,0,0,0,0,0,0,0,0,0,0,0,
Crappie Hole [25KH104],Mammals,41.25,-101.86666666666666,0,0,0,0,0,0,0,0,0,0,0,0,0,0,0,0,0,0,0,0,0,0,
Flint Creek No. 14 [KU-MT-61],Mammals,46.61666666666666,-113.11666666666666,0,0,0,0,0,0,0,0,0,0,0,0,0,0,0,0,0,0,0,0,0,0,
Zesch Cave,Mammals,30.75,-99.25,0,0,0,0,0,0,0,0,0,0,0,0,0,0,0,0,0,0,0,0,0,0,
Davidson Sand and Gravel [RW-102],Mammals,40.25,-100.25,0,0,0,0,0,0,0,0,0,0,0,0,0,0,0,0,0,0,0,0,0,0,
Kincaid Shelter [41UV2],Mammals,29.366666666666664,-99.46666666666667,0,0,0,0,0,0,0,0,0,0,0,0,0,0,0,0,0,0,0,0,0,0,
Hardman Gravel Pit [Hardman Pit],Mammals,40.75,-111.75,0,0,0,0,0,0,0,0,0,0,0,0,0,0,0,0,0,0,0,0,0,0,
Monroc Kearns Gravel Pit [Monroc Kearns Pit],Mammals,40.61666666666666,-112.0,0,0,0,0,0,0,0,0,0,0,0,0,0,0,0,0,0,0,0,0,0,0,
Sandy  Utah,Mammals,40.5,-111.86666666666666,0,0,0,0,0,0,0,0,0,0,0,0,0,0,0,0,0,0,0,0,0,0,
Tabernacle Crater [Fillmore Lava Tube],Mammals,38.866666666666674,-112.36666666666666,0,0,0,0,0,0,0,0,0,0,0,0,0,0,0,0,0,0,0,0,0,0,
Tule Springs,Mammals,36.31666666666666,-115.18972222222222,0,0,0,0,0,0,0,0,0,0,0,0,0,0,0,0,0,0,0,0,0,0,
Silver Creek,Mammals,40.72083333333334,-111.50277777777778,0,0,0,0,0,0,0,0,0,0,0,0,0,0,0,0,0,0,0,0,0,0,
Fossil Lake,Mammals,43.25,-120.36666666666666,0,0,0,0,0,0,0,0,0,0,0,0,0,0,0,0,0,0,0,0,0,0,
Wizards Beach,Mammals,40.11666666666667,-119.61666666666667,0,0,0,0,0,0,0,0,0,0,0,0,0,0,0,0,0,0,0,0,0,0,
Dry Cave,Mammals,32.37361111111111,-104.48194444444442,0,0,0,0,0,0,0,0,0,0,0,0,0,0,0,0,0,0,0,0,0,0,
Isleta Cave No. 1 [UTEP42],Mammals,34.866666666666674,-106.75,0,0,0,0,0,0,0,0,0,0,0,0,0,0,0,0,0,0,0,0,0,0,
Owl Cave 2,Mammals,38.9,-114.05,0,0,0,0,0,0,0,0,0,0,0,0,0,0,0,0,0,0,0,0,0,0,
Rancho La Brea,Mammals,34.062945,-118.35599500000001,0,0,0,0,0,0,0,0,0,8.0,8.0,0,0,0,0,0,0,0,0,0,0,0,
Lake Manix [Camp Cady Local Fauna],Mammals,34.866666666666674,-116.5,0,0,0,0,0,0,0,0,0,0,0,0,0,0,0,0,0,0,0,0,0,0,
McKittrick [UCMP 1370],Mammals,35.31666666666666,-119.61666666666667,0,0,0,0,0,0,0,0,0,0,0,0,0,0,0,0,0,0,0,0,0,0,
Teichart Gravel Pit [UCMPV69129],Mammals,38.535,-121.37027777777776,0,0,0,0,0,0,0,0,0,0,0,0,0,0,0,0,0,0,0,0,0,0,
Mountain View Dump [USGS 1227],Mammals,37.428333333333335,-122.08833333333334,0,0,0,0,0,0,0,0,0,0,0,0,0,0,0,0,0,0,0,0,0,0,
Albuquerque Gravel Products Quarry,Mammals,35.11666666666667,-106.5,0,0,0,0,0,0,0,0,0,0,1.0,0,0,0,0,0,0,0,0,0,0,0,
Rainbow Beach [ISUM 72003],Mammals,42.88333333333333,-112.71666666666668,0,0,0,0,0,0,0,0,0,0,0,0,0,0,0,0,0,0,0,0,0,0,
Dam Local Fauna [ISUM 52002],Mammals,42.75,-112.75,0,0,0,0,0,0,0,0,0,0,0,0,0,0,0,0,0,0,0,0,0,0,
American Falls,Mammals,42.75,-112.86666666666666,0,0,0,0,0,0,0,0,0,0,0,0,0,0,0,0,0,0,0,0,0,0,
White Mesa Mine,Mammals,35.5333333333333,-106.8,0,0,0,0,0,0,0,0,0,0,0,0,0,0,0,0,0,0,0,0,0,0,
White Mesa Fissure 2,Mammals,35.5333333333333,-106.8,0,0,0,0,0,0,0,0,0,0,0,0,0,0,0,0,0,0,0,0,0,0,
White River,Mammals,62.5780555555556,-139.996388888889,0,0,0,0,0,0,0,0,0,0,0,0,0,0,0,0,0,0,0,0,0,0,
