Site,Type,Latitude,Longitude,22000-21000,21000-20000,20000-19000,19000-18000,18000-17000,17000-16000,16000-15000,15000-14000,14000-13000,13000-12000,12000-11000,11000-10000,10000-9000,9000-8000,8000-7000,7000-6000,6000-5000,5000-4000,4000-3000,3000-2000,2000-1000,1000-present
Jones-Miller,Mammals,39.866666666666674,-102.11666666666666,0,0,0,0,0,0,0,0,0,0,0,0,0,0,0,0,0,0,0,0,0,0,
Canyon City Club Cave [A251],Mammals,35.0,-101.86666666666666,0,0,0,0,0,0,0,0,0,0,0,0,0,0,0,0,0,0,0,0,0,4.0,
Lubbock Lake [41LU1],Mammals,33.62041666666667,-101.89208333333336,0,0,0,0,0,0,0,0,0,0,0,0,0,0,0,0,0,0,0,0,0,0,
Hidden Cave [NV-Ch-16 (Berkeley)] [26CH16],Mammals,39.36666666666667,-118.61666666666667,0,0,0,0,0,0,0,0,0,0,0,0,0,0,0,0,0,0,0,0,0,0,
Howard Ranch,Mammals,34.36666666666667,-99.75,0,0,0,0,0,0,0,0,0,0,0,0,0,0,0,0,0,0,0,0,0,0,
Schulze Cave,Mammals,30.25,-99.86666666666666,0,0,0,0,0,0,0,0,0,0,0,0,0,0,0,0,0,0,0,0,0,0,
Pratt Cave [TMM-41172],Mammals,31.866666666666667,-104.75,0,0,0,0,0,0,0,0,0,0,0,0,0,0,0,0,0,0,0,0,0,0,
Hueco Tanks State Hist. Pk. [41EP2],Mammals,31.866666666666667,-106.0,0,0,0,0,0,0,0,0,0,0,0,0,0,0,0,0,0,0,0,0,0,0,
River Bend [48NA202],Mammals,42.75,-106.36666666666666,0,0,0,0,0,0,0,0,0,0,0,0,0,0,0,0,0,0,0,0,0,1.0,
Duckfoot [5MT3668],Mammals,37.5,-108.75,0,0,0,0,0,0,0,0,0,0,0,0,0,0,0,0,0,0,0,0,0,0,
Green Lizard Site [5MT3901],Mammals,37.25,-108.86666666666666,0,0,0,0,0,0,0,0,0,0,0,0,0,0,0,0,0,0,0,0,0,0,
Lower Grand [Davis] [39CO14],Mammals,45.575,-100.48333333333336,0,0,0,0,0,0,0,0,0,0,0,0,0,0,0,0,0,0,0,0,0,11.0,
Travis I [39CO213],Mammals,45.57722222222223,-100.49666666666668,0,0,0,0,0,0,0,0,0,0,0,0,0,0,0,0,0,0,0,0,0,6.0,
Jake White Bull [39CO6],Mammals,45.75,-100.36666666666666,0,0,0,0,0,0,0,0,0,0,0,0,0,0,0,0,0,0,0,0,0,1.0,
Black Partizan [39LM218],Mammals,44.0,-99.5,0,0,0,0,0,0,0,0,0,0,0,0,0,0,0,0,0,0,0,0,0,0,
Sommers [39ST56],Mammals,44.25777777777777,-99.94666666666666,0,0,0,0,0,0,0,0,0,0,0,0,0,0,0,0,0,0,0,0,0,0,
Red Horse Hawk [39CO213],Mammals,45.57194444444444,-100.47805555555556,0,0,0,0,0,0,0,0,0,0,0,0,0,0,0,0,0,0,0,0,0,1.0,
Mowry Bluff [25FT35],Mammals,40.37722222222222,-100.22,0,0,0,0,0,0,0,0,0,0,0,0,0,0,0,0,0,0,0,0,0,2.0,
25FT17,Mammals,40.37777777777778,-100.2125,0,0,0,0,0,0,0,0,0,0,0,0,0,0,0,0,0,0,0,0,0,2.0,
South Cannonball [32SI19],Mammals,46.412222222222205,-100.59027777777776,0,0,0,0,0,0,0,0,0,0,0,0,0,0,0,0,0,0,0,0,0,1.0,
Ellison's Rock [24RB1020],Mammals,46.26666666666666,-106.45,0,0,0,0,0,0,0,0,0,0,0,0,0,0,0,0,0,0,0,0,0,0,
Stricker [39LM1],Mammals,44.0,-99.5,0,0,0,0,0,0,0,0,0,0,0,0,0,0,0,0,0,0,0,0,0,0,
Big Juniper House [1595],Mammals,37.11666666666667,-108.5,0,0,0,0,0,0,0,0,0,0,0,0,0,0,0,0,0,0,0,0,0,0,
Fowlkes Cave,Mammals,31.0,-104.11666666666666,0,0,0,0,0,0,0,0,0,0,0,0,0,0,0,0,0,0,0,0,0,0,
Sandoval Section LA-4169,Mammals,37.016666666666666,-107.36666666666666,0,0,0,0,0,0,0,0,0,0,0,0,0,0,0,0,0,0,0,0,19.0,0,
Sandoval Section LA-4120,Mammals,37.016666666666666,-107.36666666666666,0,0,0,0,0,0,0,0,0,0,0,0,0,0,0,0,0,0,0,0,0,0,
Piedra River LA-4086,Mammals,37.016666666666666,-107.36666666666666,0,0,0,0,0,0,0,0,0,0,0,0,0,0,0,0,0,0,0,0,0,0,
Piedra River LA-4088,Mammals,37.016666666666666,-107.36666666666666,0,0,0,0,0,0,0,0,0,0,0,0,0,0,0,0,0,0,0,0,0,0,
Hogup Cave,Mammals,41.36666666666667,-113.11666666666666,0,0,0,0,0,0,0,0,0,0,0,0,0,0,0,107.0,0,67.0,19.0,59.0,5.0,1.0,
Kennewick Roadcut [Kennewick] [45BN265],Mammals,46.0,-119.11666666666666,0,0,0,0,0,0,0,0,0,0,0,0,0,0,0,0,0,0,0,0,0,0,
Fort Rock Cave [35LK1],Mammals,43.25,-121.0,0,0,0,0,0,0,0,0,0,0,0,0,0,0,0,0,0,0,0,0,0,0,
Connley Cave No. 4 [35LK50/4],Mammals,43.25,-121.0,0,0,0,0,0,0,0,0,0,0,0,0,12.0,0,0,10.0,0,0,2.0,0,0,0,
Connley Cave No. 5 [35LK50/5],Mammals,43.25,-121.0,0,0,0,0,0,0,0,0,0,0,0,0,0,0,0,0,0,0,0,0,0,0,
Burnet Cave,Mammals,32.36666666666667,-104.75,0,0,0,0,0,0,0,0,0,0,0,0,0,0,0,0,0,0,0,0,0,0,
Guadalupe Ruin,Mammals,35.5,-107.11666666666666,0,0,0,0,0,0,0,0,0,0,0,0,0,0,0,0,0,0,0,0,0,0,
Isleta Cave No. 1 [UTEP42],Mammals,34.866666666666674,-106.75,0,0,0,0,0,0,0,0,0,0,0,0,0,0,0,0,0,0,0,0,0,0,
Ezra's Retreat [26HU300],Mammals,41.5,-117.11666666666666,0,0,0,0,0,0,0,0,0,0,0,0,0,0,0,0,0,0,2.0,0,2.0,0,
LA 12072,Mammals,36.36666666666667,-106.75,0,0,0,0,0,0,0,0,0,0,0,0,0,0,0,0,0,0,0,0,0,0,
Black Mesa  D:10:1,Mammals,36.25,-110.61666666666667,0,0,0,0,0,0,0,0,0,0,0,0,0,0,0,0,0,0,0,0,0,0,
Arroyo Hondo Pueblo,Mammals,35.5,-105.86666666666666,0,0,0,0,0,0,0,0,0,0,0,0,0,0,0,0,0,0,0,0,0,79.0,
James Creek Shelter [26EU843],Mammals,40.75,-116.25,0,0,0,0,0,0,0,0,0,0,0,0,0,0,0,0,0,0,0,0,0,0,
Black Mesa D:11:0244,Mammals,36.36666666666667,-110.25,0,0,0,0,0,0,0,0,0,0,0,0,0,0,0,0,0,0,0,0,0,0,
Black Mesa D:11:0449,Mammals,36.36666666666667,-110.25,0,0,0,0,0,0,0,0,0,0,0,0,0,0,0,0,0,0,0,0,36.0,0,
Black Mesa D:11:2023,Mammals,36.36666666666667,-110.36666666666666,0,0,0,0,0,0,0,0,0,0,0,0,0,0,0,0,0,0,0,0,4.0,0,
Black Mesa D:11:2025,Mammals,36.36666666666667,-110.36666666666666,0,0,0,0,0,0,0,0,0,0,0,0,0,0,0,0,0,0,0,0,2.0,0,
Black Mesa D:11:2030,Mammals,36.36666666666667,-110.36666666666666,0,0,0,0,0,0,0,0,0,0,0,0,0,0,0,0,0,0,0,0,6.0,0,
Black Mesa D:11:2062,Mammals,36.36666666666667,-110.36666666666666,0,0,0,0,0,0,0,0,0,0,0,0,0,0,0,0,0,0,0,0,2.0,2.0,
Black Mesa D:7:2001,Mammals,36.5,-110.36666666666666,0,0,0,0,0,0,0,0,0,0,0,0,0,0,0,0,0,0,0,0,0,2.0,
Black Mesa D:11:0275,Mammals,36.36666666666667,-110.25,0,0,0,0,0,0,0,0,0,0,0,0,0,0,0,0,0,0,0,0,0,6.0,
Black Mesa D:11:0316,Mammals,36.36666666666667,-110.25,0,0,0,0,0,0,0,0,0,0,0,0,0,0,0,0,0,0,0,0,0,2.0,
LA 12055,Mammals,36.25,-106.75,0,0,0,0,0,0,0,0,0,0,0,0,0,0,0,0,0,0,0,0,0,0,
LA 12062,Mammals,36.5,-106.75,0,0,0,0,0,0,0,0,0,0,0,0,0,0,0,0,0,0,0,0,0,0,
LA 12063,Mammals,36.5,-106.75,0,0,0,0,0,0,0,0,0,0,0,0,0,0,0,0,0,0,0,0,0,0,
LA 12066,Mammals,36.36666666666667,-106.75,0,0,0,0,0,0,0,0,0,0,0,0,0,0,0,0,0,0,0,0,0,0,
LA 12069,Mammals,36.5,-106.75,0,0,0,0,0,0,0,0,0,0,0,0,0,0,0,0,0,0,0,0,0,0,
LA 12073,Mammals,36.36666666666667,-106.75,0,0,0,0,0,0,0,0,0,0,0,0,0,0,0,0,0,0,0,0,0,0,
O'Malley Shelter,Mammals,37.51666666666667,-114.26666666666668,0,0,0,0,0,0,0,0,0,0,0,0,0,0,0,0,0,0,0,0,0,0,
Caldwell Village [42Un95],Mammals,40.36666666666667,-109.75,0,0,0,0,0,0,0,0,0,0,0,0,0,0,0,0,0,0,0,0,0,0,
Navajo Reservoir Site LA 4065,Mammals,36.75,-107.61666666666667,0,0,0,0,0,0,0,0,0,0,0,0,0,0,0,0,0,0,0,0,1.0,0,
Albino Village [LA 4269],Mammals,36.866666666666674,-107.5,0,0,0,0,0,0,0,0,0,0,0,0,0,0,0,0,0,0,0,0,1.0,0,
Bancos Village [LA 4380],Mammals,36.866666666666674,-107.36666666666666,0,0,0,0,0,0,0,0,0,0,0,0,0,0,0,0,0,0,0,0,2.0,0,
Evans Mound,Mammals,37.75,-112.86666666666666,0,0,0,0,0,0,0,0,0,0,0,0,0,0,0,0,0,0,0,0,0,4.0,
