Site,Type,Latitude,Longitude,22000-21000,21000-20000,20000-19000,19000-18000,18000-17000,17000-16000,16000-15000,15000-14000,14000-13000,13000-12000,12000-11000,11000-10000,10000-9000,9000-8000,8000-7000,7000-6000,6000-5000,5000-4000,4000-3000,3000-2000,2000-1000,1000-present
Peccary Cave,Mammals,35.866666666666674,-93.0,0,0,0,0,0,0,0,0,0,0,0,0,0,0,0,0,0,0,0,0,0,0,
McKees Rocks Village [36AL16],Mammals,40.47222222222222,-80.04972222222221,0,0,0,0,0,0,0,0,0,0,0,0,0,0,0,0,0,0,0,0,0,0,
Drew [36AL62],Mammals,40.367777777777775,-80.11888888888888,0,0,0,0,0,0,0,0,0,0,0,0,0,0,0,0,0,0,0,0,0,0,
Eschelman [36LA12],Mammals,40.0,-76.25,0,0,0,0,0,0,0,0,0,0,0,0,0,0,0,0,0,0,0,0,0,0,
Indian Knoll [15OH-2],Mammals,37.25,-86.86666666666666,0,0,0,0,0,0,0,0,0,0,0,0,0,0,0,0,0,0,0,0,0,0,
Lawson [AgHh-1],Mammals,43.0125,-81.3,0,0,0,0,0,0,0,0,0,0,0,0,0,0,0,0,0,0,0,0,0,0,
Westmoreland - Barber [40Mi11],Mammals,35.020833333333336,-85.54583333333335,0,0,0,0,0,0,0,0,0,0,0,0,0,0,0,0,0,0,0,0,0,0,
Williams Cave,Mammals,31.866666666666667,-104.75,0,0,0,0,0,0,0,0,0,0,0,0,0,0,0,0,0,0,0,0,0,0,
Kyle [41HI1],Mammals,32.03361111111112,-97.42027777777776,0,0,0,0,0,0,0,0,0,0,0,0,0,0,0,0,0,0,0,0,0,0,
Schulze Cave,Mammals,30.25,-99.86666666666666,0,0,0,0,0,0,0,0,0,0,0,0,0,0,0,0,0,0,0,0,0,0,
Wardell Buffalo Trap [48SU301],Mammals,42.5,-110.0,0,0,0,0,0,0,0,0,0,0,0,0,0,0,0,0,0,0,0,0,0,0,
Rock Ranch Trading Post [48GO123],Mammals,42.0,-104.25,0,0,0,0,0,0,0,0,0,0,0,0,0,0,0,0,0,0,0,0,0,0,
McKean [48CK7],Mammals,44.25,-104.75,0,0,0,0,0,0,0,0,0,0,0,0,0,0,0,0,0,0,0,0,0,0,
McLemore [34GD4],Mammals,35.25,-98.61666666666667,0,0,0,0,0,0,0,0,0,0,0,0,0,0,0,0,0,0,0,0,0,0,
Heerwald [34CU27],Mammals,35.5,-99.0,0,0,0,0,0,0,0,0,0,0,0,0,0,0,0,0,0,0,0,0,0,0,
Pohly [34MY54],Mammals,36.25,-95.0,0,0,0,0,0,0,0,0,0,0,0,0,0,0,0,0,0,0,0,0,0,0,
James [34Br-11],Mammals,34.0,-96.5,0,0,0,0,0,0,0,0,0,0,0,0,0,0,0,0,0,0,0,0,0,0,
Weston [OS-99],Mammals,36.75,-96.0,0,0,0,0,0,0,0,0,0,0,0,0,0,0,0,0,0,0,0,0,0,0,
Sparks [34Gd-119],Mammals,35.0,-97.75,0,0,0,0,0,0,0,0,0,0,0,0,0,0,0,0,0,0,0,0,0,0,
Spiro Site [34Lf-46],Mammals,35.11666666666667,-94.5,0,0,0,0,0,0,0,0,0,0,0,0,0,0,0,0,0,0,0,0,0,0,
Cookson [34CK12],Mammals,35.61666666666666,-94.86666666666666,0,0,0,0,0,0,0,0,0,0,0,0,0,0,0,0,0,0,0,0,0,0,
Copperhead Cave [34OS85],Mammals,36.61666666666666,-96.36666666666666,0,0,0,0,0,0,0,0,0,0,0,0,0,0,0,0,0,0,0,0,0,0,
Big Hawk Shelter [34OS114],Mammals,36.36666666666667,-96.36666666666666,0,0,0,0,0,0,0,0,0,0,0,0,0,0,0,0,0,0,0,0,0,0,
Sunny Shelter [34OS135],Mammals,36.61666666666666,-96.36666666666666,0,0,0,0,0,0,0,0,0,0,0,0,0,0,0,0,0,0,0,0,0,0,
Pate [34Gv-49],Mammals,34.61666666666666,-97.25,0,0,0,0,0,0,0,0,0,0,0,0,0,0,0,0,0,0,0,0,0,0,
Buffalo Village [46PU31],Mammals,38.583333333333336,-82.0,0,0,0,0,0,0,0,0,0,0,0,0,0,0,0,0,0,0,0,0,0,0,
Boucher [VTFr-26],Mammals,44.95,-73.05,0,0,0,0,0,0,0,0,0,0,0,0,0,0,0,0,0,0,0,0,0,0,
Thirty Mile Mesa,Mammals,46.11666666666667,-108.36666666666666,0,0,0,0,0,0,0,0,0,0,0,0,0,0,0,0,0,0,0,0,0,0,
NUZUM [14DP10],Mammals,39.93888888888889,-95.25138888888888,0,0,0,0,0,0,0,0,0,0,0,0,0,0,0,0,0,0,0,0,0,0,
Michaud Site A [5AH2],Mammals,39.5,-104.25,0,0,0,0,0,0,0,0,0,0,0,0,0,0,0,0,0,0,0,0,0,0,
Spawn Mound [39LK201],Mammals,43.866666666666674,-97.0,0,0,0,0,0,0,0,0,0,0,0,0,0,0,0,0,0,0,0,0,0,0,
Black Partizan [39LM218],Mammals,44.0,-99.5,0,0,0,0,0,0,0,0,0,0,0,0,0,0,0,0,0,0,0,0,0,0,
Bill Packer [25SM9],Mammals,41.383333333333326,-98.75611111111111,0,0,0,0,0,0,0,0,0,0,0,0,0,0,0,0,0,0,0,0,0,0,
Niobrara Railroad Bridge [25KX275],Mammals,42.75,-98.0,0,0,0,0,0,0,0,0,0,0,0,0,0,0,0,0,0,0,0,0,0,0,
Shermer [32EM10],Mammals,46.5,-100.36666666666666,0,0,0,0,0,0,0,0,0,0,0,0,0,0,0,0,0,0,0,0,0,0,
Naze [32SN246],Mammals,46.685,-98.59416666666664,0,0,0,0,0,0,0,0,0,0,0,0,0,0,0,0,0,0,0,0,0,0,
Rabic [32OL179],Mammals,47.11666666666667,-100.86666666666666,0,0,0,0,0,0,0,0,0,0,0,0,0,0,0,0,0,0,0,0,0,0,
Cribb's Crib [13WA105],Mammals,41.36666666666667,-93.36666666666666,0,0,0,0,0,0,0,0,0,0,0,0,0,0,0,0,0,0,0,0,0,0,
Dixon [13WD8],Mammals,42.252222222222215,-95.75,0,0,0,0,0,0,0,0,0,0,0,0,0,0,0,0,0,0,0,0,0,0,
Tamarran [5LP326],Mammals,37.36666666666667,-107.75,0,0,0,0,0,0,0,0,0,0,0,0,0,0,0,0,0,0,0,0,0,0,
Blacktail Cave [24LC151],Mammals,47.08333333333333,-112.28333333333332,0,0,0,0,0,0,0,0,0,0,0,0,0,0,0,2.0,0,0,0,0,0,0,
Gordon Creek Burial [5LR99],Mammals,40.75,-105.25,0,0,0,0,0,0,0,0,0,0,0,0,0,0,0,0,0,0,0,0,0,0,
Periman Hamlet [5MT4671],Mammals,37.5,-108.5,0,0,0,0,0,0,0,0,0,0,0,0,0,0,0,0,0,0,0,0,0,0,
Swan Creek [39WW7],Mammals,45.25,-100.25,0,0,0,0,0,0,0,0,0,0,0,0,0,0,0,0,0,0,0,0,0,0,
Breeden [39ST16],Mammals,44.416666666666664,-100.3925,0,0,0,0,0,0,0,0,0,0,0,0,0,0,0,0,0,0,0,0,0,0,
Linville II [34RM492],Mammals,35.61666666666666,-99.36666666666666,0,0,0,0,0,0,0,0,0,0,0,0,0,0,0,0,0,0,0,0,0,0,
Wetherill Mesa Site 1676,Mammals,37.11666666666667,-108.5,0,0,0,0,0,0,0,0,0,0,0,0,0,0,0,0,0,0,0,0,0,0,
Mesa Verde Site 875,Mammals,37.11666666666667,-108.5,0,0,0,0,0,0,0,0,0,0,0,0,0,0,0,0,0,0,0,0,0,0,
Mesa Verde Site 499,Mammals,37.11666666666667,-108.5,0,0,0,0,0,0,0,0,0,0,0,0,0,0,0,0,0,0,0,0,0,0,
Mesa Verde Site 866,Mammals,37.11666666666667,-108.5,0,0,0,0,0,0,0,0,0,0,0,0,0,0,0,0,0,0,0,0,0,0,
Fowlkes Cave,Mammals,31.0,-104.11666666666666,0,0,0,0,0,0,0,0,0,0,0,0,0,0,0,0,0,0,0,0,0,0,
Gilbert [41RA13],Mammals,32.866666666666674,-95.75,0,0,0,0,0,0,0,0,0,0,0,0,0,0,0,0,0,0,0,0,0,0,
Greenhaw [41HY29],Mammals,30.0,-97.75,0,0,0,0,0,0,0,0,0,0,0,0,0,0,0,0,0,0,0,0,0,0,
41NU102,Mammals,27.616666666666667,-97.36666666666666,0,0,0,0,0,0,0,0,0,0,0,0,0,0,0,0,0,0,0,0,0,0,
41NU103,Mammals,27.616666666666667,-97.36666666666666,0,0,0,0,0,0,0,0,0,0,0,0,0,0,0,0,0,0,0,0,0,0,
Winnie's Mound [41BU17],Mammals,30.5,-96.5,0,0,0,0,0,0,0,0,0,0,0,0,0,0,0,0,0,0,0,0,0,0,
Damp Cave [41VV189],Mammals,29.75,-101.36666666666666,0,0,0,0,0,0,0,0,0,0,0,0,0,0,0,0,0,0,0,0,0,0,
LaSunder Cave,Mammals,39.61666666666666,-107.11666666666666,0,0,0,0,0,0,0,0,0,0,0,0,0,0,0,0,0,0,0,0,0,0,
Brooks Cave,Mammals,31.616666666666667,-104.11666666666666,0,0,0,0,0,0,0,0,0,0,0,0,0,0,0,0,0,0,0,0,0,0,
Deep,Mammals,30.366666666666664,-97.75,0,0,0,0,0,0,0,0,0,0,0,0,0,0,0,0,0,0,0,0,0,0,
Bellevue Mound,Mammals,32.25,-93.5,0,0,0,0,0,0,0,0,0,0,0,0,0,0,0,0,0,0,0,0,0,0,
Elliott [14GE312],Mammals,39.0,-96.61666666666667,0,0,0,0,0,0,0,0,0,0,0,0,0,0,0,0,0,0,0,0,0,0,
Kincaid Shelter [41UV2],Mammals,29.366666666666664,-99.46666666666667,0,0,0,0,0,0,0,0,0,0,0,0,0,0,0,4.0,0,0,0,0,0,2.0,
Fairchance Mound [46MR13],Mammals,39.833333333333336,-80.83333333333333,0,0,0,0,0,0,0,0,0,0,0,0,0,0,0,0,0,0,0,0,0,0,
Rolf Lee Farm [46MS51],Mammals,38.866666666666674,-82.11666666666666,0,0,0,0,0,0,0,0,0,0,0,0,0,0,0,0,0,0,0,0,0,0,
Overpeck [36BU5],Mammals,40.5,-75.11666666666666,0,0,0,0,0,0,0,0,0,0,0,0,0,0,0,0,0,0,0,0,0,0,
Fisher [36GR21],Mammals,39.866666666666674,-80.25,0,0,0,0,0,0,0,0,0,0,0,0,0,0,0,0,0,0,0,0,0,0,
Wylie Site #1 [36WH274],Mammals,40.2061111111111,-80.2075,0,0,0,0,0,0,0,0,0,0,0,0,0,0,0,0,0,0,0,0,0,0,
Novak [36FA34],Mammals,39.866666666666674,-79.75,0,0,0,0,0,0,0,0,0,0,0,0,0,0,0,0,0,0,0,0,0,0,
Howarth-Nelson [36FA40],Mammals,40.03194444444445,-79.6375,0,0,0,0,0,0,0,0,0,0,0,0,0,0,0,0,0,0,0,0,0,0,
Faucett [36PI13A],Mammals,41.12,-74.9611111111111,0,0,0,0,0,0,0,0,0,0,0,0,0,0,0,0,0,0,0,0,0,0,
Friendsville [18GA23],Mammals,39.61666666666666,-79.36666666666666,0,0,0,0,0,0,0,0,0,0,0,0,0,0,0,0,0,0,0,0,0,0,
Gray [28WA580],Mammals,40.866666666666674,-75.0,0,0,0,0,0,0,0,0,0,0,0,0,0,0,0,0,0,0,0,0,0,0,
Cypress Creek Village Sites 11 and 12,Mammals,37.5,-87.25,0,0,0,0,0,0,0,0,0,0,0,0,0,0,0,0,0,0,0,0,0,0,
Tolu,Mammals,37.75,-83.61666666666667,0,0,0,0,0,0,0,0,0,0,0,0,0,0,0,0,0,0,0,0,0,0,
George W. Spencer Shelter,Mammals,37.61666666666666,-83.5,0,0,0,0,0,0,0,0,0,0,0,0,0,0,0,0,0,0,0,0,0,0,
Dillard Stamper Shelter #1,Mammals,37.61666666666666,-83.5,0,0,0,0,0,0,0,0,0,0,0,0,0,0,0,0,0,0,0,0,0,0,
Steven DeHart Shelter,Mammals,37.866666666666674,-83.86666666666666,0,0,0,0,0,0,0,0,0,0,0,0,0,0,0,0,0,0,0,0,0,0,
Big Ash Cave,Mammals,37.5,-83.75,0,0,0,0,0,0,0,0,0,0,0,0,0,0,0,0,0,0,0,0,0,0,
Little Ash Cave,Mammals,37.5,-83.75,0,0,0,0,0,0,0,0,0,0,0,0,0,0,0,0,0,0,0,0,0,0,
Red-eye Hollow,Mammals,37.5,-83.75,0,0,0,0,0,0,0,0,0,0,0,0,0,0,0,0,0,0,0,0,0,0,
Chiggerville,Mammals,37.25,-86.86666666666666,0,0,0,0,0,0,0,0,0,0,0,0,0,0,0,0,0,0,0,0,0,0,
Werner Mound [16BO8],Mammals,32.575,-93.66666666666667,0,0,0,0,0,0,0,0,0,0,0,0,0,0,0,0,0,0,0,0,0,0,
Sylvan Lake Rockshelter [CLO2],Mammals,41.61666666666666,-73.61666666666667,0,0,0,0,0,0,0,0,0,0,0,0,0,0,0,0,0,0,0,0,0,0,
Zimmerman Rockshelter [Cox24],Mammals,42.25,-73.75,0,0,0,0,0,0,0,0,0,0,0,0,0,0,0,0,0,0,0,0,0,0,
Tufano [Cox-10],Mammals,42.99222222222222,-76.7275,0,0,0,0,0,0,0,0,0,0,0,0,0,0,0,0,0,0,0,0,0,0,
5LP111,Mammals,37.11666666666667,-107.75,0,0,0,0,0,0,0,0,0,0,0,0,0,0,0,0,0,0,0,0,0,0,
Dixon Rockshelter [46PR6],Mammals,39.5,-79.61666666666667,0,0,0,0,0,0,0,0,0,0,0,0,0,0,0,0,0,0,0,0,0,0,
Hardin Village,Mammals,37.36666666666667,-88.25,0,0,0,0,0,0,0,0,0,0,0,0,0,0,0,0,0,0,0,0,0,0,
Fay Tolton [39ST11],Mammals,44.74722222222222,-100.3925,0,0,0,0,0,0,0,0,0,0,0,0,0,0,0,0,0,0,0,0,0,0,
Lab Woofie [11S346],Mammals,38.5,-90.11666666666666,0,0,0,0,0,0,0,0,0,0,0,0,0,0,0,0,0,0,0,0,0,0,
Rosenkrans [212378889],Mammals,41.1,-74.98333333333333,0,0,0,0,0,0,0,0,0,0,0,0,0,0,0,0,0,0,0,0,0,0,
Cedar Grove [3LA97],Mammals,33.25,-93.61666666666667,0,0,0,0,0,0,0,0,0,0,0,0,0,0,0,0,0,0,0,0,0,0,
Anderson [40WM9],Mammals,35.866666666666674,-86.86666666666666,0,0,0,0,0,0,0,0,0,0,0,0,0,0,0,0,0,0,0,0,0,0,
Zebree [3MS20],Mammals,35.98444444444445,-90.13138888888889,0,0,0,0,0,0,0,0,0,0,0,0,0,0,0,0,0,0,0,0,0,0,
Standridge,Mammals,34.25,-93.5,0,0,0,0,0,0,0,0,0,0,0,0,0,0,0,0,0,0,0,0,0,0,
Alexander [3CN117],Mammals,35.25,-92.61666666666667,0,0,0,0,0,0,0,0,0,0,0,0,0,0,0,0,0,0,0,0,0,0,
Bangs Slough [3CA3],Mammals,33.25,-92.61666666666667,0,0,0,0,0,0,0,0,0,0,0,0,0,0,0,0,0,0,0,0,6.0,2.0,
Oatville Sand Pit,Mammals,37.61666666666666,-97.36666666666666,0,0,0,0,0,0,0,0,0,0,0,0,0,0,0,0,0,0,0,0,0,0,
Associated Material and Supply Co. Sandpit,Mammals,37.75,-97.36666666666666,0,0,0,0,0,0,0,0,0,0,0,0,0,0,0,0,0,0,0,0,0,0,
DL-30,Mammals,36.5,-94.75,0,0,0,0,0,0,0,0,0,0,0,0,0,0,0,0,0,0,0,0,0,0,
Hill Creek,Mammals,40.36666666666667,-90.0,0,0,0,0,0,0,0,0,0,0,0,0,0,0,0,0,0,0,0,0,0,0,
Sister's Creek [11-F-15],Mammals,40.36666666666667,-90.0,0,0,0,0,0,0,0,0,0,0,0,0,0,0,0,0,0,0,0,0,0,0,
Riverside,Mammals,45.25,-87.73333333333333,0,0,0,0,0,0,0,0,0,0,0,0,0,0,0,0,0,0,0,0,0,0,
Arnett Mound [11Fl203],Mammals,40.25,-90.11666666666666,0,0,0,0,0,0,0,0,0,0,0,0,0,0,0,0,0,0,0,0,0,0,
Millville [47GT53],Mammals,43.03333333333334,-90.95,0,0,0,0,0,0,0,0,0,0,0,0,0,0,0,0,0,0,0,0,0,0,
Marmes Rockshelter [45FR50],Mammals,46.61666666666666,-118.2,0,0,0,0,0,0,0,0,0,0,0,0,0,0,0,0,0,0,0,0,0,0,
Hogup Cave,Mammals,41.36666666666667,-113.11666666666666,0,0,0,0,0,0,0,0,0,0,0,0,0,0,1.0,2.0,0,0,0,1.0,0,0,
Cowboy Cave [45WN420],Mammals,38.31777777777777,-110.20222222222225,0,0,0,0,0,0,0,0,0,0,0,0,0,0,0,0,0,0,0,0,0,0,
Dry Cave,Mammals,32.37361111111111,-104.48194444444442,0,0,0,0,0,0,0,0,0,0,0,0,0,0,0,0,0,0,0,0,0,0,
Howell's Ridge Cave [UTEP32],Mammals,31.916666666666668,-108.5,0,0,0,0,0,0,0,0,0,0,0,0,0,0,0,0,0,0,0,0,0,0,
Isleta Cave No. 2 [UTEP46],Mammals,34.866666666666674,-106.75,0,0,0,0,0,0,0,0,0,0,0,0,0,0,0,0,0,0,0,0,0,0,
Ksunku [45FE45],Mammals,48.61666666666666,-118.11666666666666,0,0,0,0,0,0,0,0,0,0,0,0,0,0,0,0,0,0,0,0,0,0,
The Dalles [Fivemile Rapids] [35WS4],Mammals,45.5,-121.11666666666666,0,0,0,0,0,0,0,0,0,0,0,0,1.0,0,0,1.0,0,0,0,0,0,0,
Fish Bone Cave,Mammals,40.20222222222222,-119.27916666666668,0,0,0,0,0,0,0,0,0,0,0,0,0,0,0,0,0,0,0,0,0,0,
Whitewater Draw,Mammals,31.366666666666664,-109.61666666666667,0,0,0,0,0,0,0,0,0,0,0,0,0,0,0,0,0,0,0,0,0,0,
Slick Rock Village [4Tul10],Mammals,36.36666666666667,-118.86666666666666,0,0,0,0,0,0,0,0,0,0,0,0,0,0,0,0,0,0,0,0,0,8.0,
Rancho La Brea,Mammals,34.062945,-118.35599500000001,0,0,0,0,0,0,0,0,0,0,0,0,1.0,1.0,0,0,0,0,0,0,0,0,
Conkling Cavern [Beasley Cave] [LACM 10091],Mammals,32.25,-106.5,0,0,0,0,0,0,0,0,0,0,0,0,0,0,0,0,0,0,0,0,0,0,
Schuiling Cave [LACM 1123],Mammals,34.75,-116.61666666666667,0,0,0,0,0,0,0,0,0,0,0,0,0,0,0,0,0,0,0,0,0,0,
Solar One [1.76.13],Mammals,34.88333333333333,-116.83333333333331,0,0,0,0,0,0,0,0,0,0,0,0,0,0,0,0,0,0,0,0,0,0,
Mercer Cave [UCMPV67108],Mammals,38.15166666666667,-120.47666666666667,0,0,0,0,0,0,0,0,0,0,0,0,0,0,0,0,0,0,0,0,0,0,
Dudley Ridge [Witt Site] [UCMPV75041],Mammals,35.941944444444445,-119.78277777777777,0,0,0,0,0,0,0,0,0,0,0,0,0,0,0,0,0,0,0,0,0,0,
Wildcat Canyon [35GM9],Mammals,45.61666666666666,-120.36666666666666,0,0,0,0,0,0,0,0,0,0,0,0,0,0,0,0,0,0,0,0,0,0,
Snake Rock Village,Mammals,38.75,-111.25,0,0,0,0,0,0,0,0,0,0,0,0,0,0,0,0,0,0,0,0,0,0,
Caldwell Village [42Un95],Mammals,40.36666666666667,-109.75,0,0,0,0,0,0,0,0,0,0,0,0,0,0,0,0,0,0,0,0,0,9.0,
Navajo Reservoir Site LA 4072,Mammals,36.75,-107.5,0,0,0,0,0,0,0,0,0,0,0,0,0,0,0,0,0,0,0,0,0,1.0,
Todosio Rock Shelter [LA 4298],Mammals,36.75,-107.61666666666667,0,0,0,0,0,0,0,0,0,0,0,0,0,0,0,0,0,0,0,0,6.0,0,
Middle Pecos Valley Site P24,Mammals,34.11666666666667,-104.11666666666666,0,0,0,0,0,0,0,0,0,0,0,0,0,0,0,0,0,0,0,0,0,3.0,
Red Lake Wash Site NA 5161,Mammals,35.36666666666667,-112.11666666666666,0,0,0,0,0,0,0,0,0,0,0,0,0,0,0,0,0,0,0,0,0,1.0,
Backhoe Village [42SV662],Mammals,38.766666666666666,-112.08333333333331,0,0,0,0,0,0,0,0,0,0,0,0,0,0,0,0,0,0,0,0,8.0,8.0,
Meacham,Mammals,42.61666666666666,-114.25,0,0,0,0,0,0,0,0,0,0,0,0,0,0,0,0,0,0,0,0,1.0,1.0,
Rattlesnake Canyon,Mammals,42.866666666666674,-115.75,0,0,0,0,0,0,0,0,0,0,0,0,0,0,0,0,0,0,0,0,0,5.0,
10OE128,Mammals,43.45,-116.75,0,0,0,0,0,0,0,0,0,0,0,0,0,0,0,0,0,0,0,1.0,0,0,
Adam 2 [26CK2059],Mammals,36.5,-114.36666666666666,0,0,0,0,0,0,0,0,0,0,0,0,0,0,0,0,0,0,0,0,0,2.0,
Spaulding [10NP108],Mammals,46.36666666666667,-116.75,0,0,0,0,0,0,0,0,0,0,0,0,0,0,0,0,0,0,0,0,0,0,
Devil's Den,Mammals,29.366666666666664,-82.36666666666666,0,0,0,0,0,0,0,0,0,0,0,0,0,0,0,0,0,0,0,0,0,0,
Harrison Homestead Village [8NA41],Mammals,30.625,-81.43333333333334,0,0,0,0,0,0,0,0,0,0,0,0,0,0,0,0,0,0,0,0,0,1.0,
Lehigh,Mammals,25.75,-80.36666666666666,0,0,0,0,0,0,0,0,0,0,0,0,0,0,0,0,0,0,0,0,0,0,
Waddells Mill Pond [8JA65],Mammals,30.866666666666667,-85.25,0,0,0,0,0,0,0,0,0,0,0,0,0,0,0,0,0,0,0,0,0,0,
Walker Point [8NA28],Mammals,30.616666666666667,-81.43333333333334,0,0,0,0,0,0,0,0,0,0,0,0,0,0,0,0,0,0,0,0,6.0,6.0,
Bay Pines [8PI64],Mammals,27.75,-82.75,0,0,0,0,0,0,0,0,0,0,0,0,0,0,0,0,0,0,0,0,0,0,
Cagles Hammock,Mammals,26.116666666666667,-80.25,0,0,0,0,0,0,0,0,0,0,0,0,0,0,0,0,0,0,0,0,0,0,
Markham Park Mound No. 2,Mammals,26.116666666666667,-80.36666666666666,0,0,0,0,0,0,0,0,0,0,0,0,0,0,0,0,0,0,0,0,0,0,
Yellow Bluffs-Whitaker Mound [8SO4],Mammals,27.25,-82.5,0,0,0,0,0,0,0,0,0,0,0,0,0,0,0,0,0,0,0,0,0,0,
Bishops Hammock [8BD66],Mammals,26.116666666666667,-80.25,0,0,0,0,0,0,0,0,0,0,0,0,0,0,0,0,0,0,0,0,0,1.0,
Warm Mineral Spring [8SO19],Mammals,27.0,-82.11666666666666,0,0,0,0,0,0,0,0,0,0,0,0,0,0,0,0,0,0,0,0,0,0,
Myakkahatchee [8SO397],Mammals,27.0,-82.25,0,0,0,0,0,0,0,0,0,0,0,0,0,0,0,0,0,0,0,0,0,0,
Melbourne [Golf Course Locality],Mammals,28.066666666666663,-82.68333333333332,0,0,0,0,0,0,0,0,0,0,0,0,0,0,0,0,0,0,0,0,0,0,
New Port,Mammals,30.116666666666667,-84.11666666666666,0,0,0,0,0,0,0,0,0,0,0,0,0,0,0,0,0,0,0,0,0,0,
Grove's Orange Midden [8VO2601],Mammals,28.75,-81.11666666666666,0,0,0,0,0,0,0,0,0,0,0,0,0,0,0,0,0,0,0,0,0,0,
Melton [8Al69],Mammals,29.5,-82.25,0,0,0,0,0,0,0,0,0,0,0,0,0,0,0,0,0,0,0,0,1.0,0,
Kramer Cave [Falcon Hill-Kramer Cave] [26WA196],Mammals,40.25,-119.36666666666666,0,0,0,0,0,0,0,0,0,0,0,0,0,0,0,0,0,0,8.0,0,0,0,
Goodman,Mammals,30.366666666666664,-81.5,0,0,0,0,0,0,0,0,0,0,0,0,0,0,0,0,0,0,0,0,0,1.0,
Bellefonte [1JA300],Mammals,34.61666666666666,-85.86666666666666,0,0,0,0,0,0,0,0,0,0,0,0,0,0,0,0,0,0,0,0,0,0,
Haarstad Mound,Mammals,48.36666666666667,-96.36666666666666,0,0,0,0,0,0,0,0,0,0,0,0,0,0,0,0,0,0,0,0,0,0,
Warner Mound [21PL6],Mammals,47.5,-96.25,0,0,0,0,0,0,0,0,0,0,0,0,0,0,0,0,0,0,0,0,0,0,
Humphrey Village [21FA1],Mammals,43.75,-94.11666666666666,0,0,0,0,0,0,0,0,0,0,0,0,0,0,0,0,0,0,0,0,0,0,
Cambria Village [21BE1],Mammals,44.11666666666667,-94.25,0,0,0,0,0,0,0,0,0,0,0,0,0,0,0,0,0,0,0,0,0,0,
Great Oasis Village [21MU2],Mammals,44.0,-95.75,0,0,0,0,0,0,0,0,0,0,0,0,0,0,0,0,0,0,0,0,0,0,
Bowen,Mammals,39.866666666666674,-86.0,0,0,0,0,0,0,0,0,0,0,0,0,0,0,0,0,0,0,0,0,0,0,
McCain,Mammals,38.36666666666667,-86.75,0,0,0,0,0,0,0,0,0,0,0,0,0,0,0,0,0,0,0,0,0,0,
Shaffer,Mammals,39.11666666666667,-87.0,0,0,0,0,0,0,0,0,0,0,0,0,0,0,0,0,0,0,0,0,0,0,
Anderson Pit,Mammals,39.0,-86.5,0,0,0,0,0,0,0,0,0,0,0,0,0,0,0,0,0,0,0,0,0,0,
Steuben Village,Mammals,40.98333333333334,-89.43333333333334,0,0,0,0,0,0,0,0,0,0,0,0,0,0,0,0,0,0,0,0,0,0,
Prall Shelter [3BE187],Mammals,36.25,-93.86666666666666,0,0,0,0,0,0,0,0,0,0,0,0,0,0,0,0,0,0,0,0,0,0,
Bushwhack Shelter [3BE2],Mammals,36.25,-93.86666666666666,0,0,0,0,0,0,0,0,0,0,0,0,0,0,0,0,0,0,0,0,0,0,
Henderson [LA-1549],Mammals,33.3,-104.66666666666669,0,0,0,0,0,0,0,0,0,0,0,0,0,0,0,0,0,0,0,0,0,0,
Young [3BA20],Mammals,36.25,-92.25,0,0,0,0,0,0,0,0,0,0,0,0,0,0,0,0,0,0,0,0,0,0,
Soc [3WH34],Mammals,35.25,-91.61666666666667,0,0,0,0,0,0,0,0,0,0,0,0,0,0,0,0,0,0,0,0,0,0,
Lutz Bluff Shelter [23SR136],Mammals,37.866666666666674,-93.75,0,0,0,0,0,0,0,0,0,0,0,0,0,0,0,0,0,0,0,0,2.0,0,
Turner Cave [3MA20],Mammals,36.11666666666667,-93.75,0,0,0,0,0,0,0,0,0,0,0,0,0,0,0,0,0,0,0,0,0,0,
Little Crane Lake [16MO7],Mammals,32.866666666666674,-91.61666666666667,0,0,0,0,0,0,0,0,0,0,0,0,0,0,0,0,0,0,0,0,0,0,
Mill Creek [3ST12],Mammals,35.866666666666674,-92.0,0,0,0,0,0,0,0,0,0,0,0,0,0,0,0,0,0,0,0,0,0,0,
Lawhorn,Mammals,35.96666666666666,-90.38333333333334,0,0,0,0,0,0,0,0,0,0,0,0,0,0,0,0,0,0,0,0,0,0,
Cave Knob Mound [23HI149],Mammals,37.866666666666674,-93.25,0,0,0,0,0,0,0,0,0,0,0,0,0,0,0,0,0,0,0,0,0,0,
Karr's Camp Mound [23BE117],Mammals,38.30166666666666,-93.45694444444443,0,0,0,0,0,0,0,0,0,0,0,0,0,0,0,0,0,0,0,0,0,0,
Wray-Martin Mound [23BE3],Mammals,38.13972222222222,-93.3866666666667,0,0,0,0,0,0,0,0,0,0,0,0,0,0,0,0,0,0,0,0,0,0,
Fairfield Mounds [23BE6],Mammals,38.13888888888888,-93.3977777777778,0,0,0,0,0,0,0,0,0,0,0,0,0,0,0,0,0,0,0,0,0,0,
Mandrake Mound [23HE139],Mammals,38.26861111111111,-93.55861111111109,0,0,0,0,0,0,0,0,0,0,0,0,0,0,0,0,0,0,0,0,0,0,
Lindley Arm Mound [23HI209],Mammals,37.87222222222222,-93.2763888888889,0,0,0,0,0,0,0,0,0,0,0,0,0,0,0,0,0,0,0,0,0,0,
Melanin Mound 2 [23BE136],Mammals,38.12555555555556,-93.38027777777776,0,0,0,0,0,0,0,0,0,0,0,0,0,0,0,0,0,0,0,0,0,0,
Morgan Mound [23DA201],Mammals,37.565,-93.63222222222221,0,0,0,0,0,0,0,0,0,0,0,0,0,0,0,0,0,0,0,0,0,0,
Magistrate Bluff Mound [23SR138],Mammals,37.953611111111115,-93.61888888888888,0,0,0,0,0,0,0,0,0,0,0,0,0,0,0,0,0,0,0,0,0,0,
Briley Creek Mound [23SR141],Mammals,38.09194444444444,-93.5675,0,0,0,0,0,0,0,0,0,0,0,0,0,0,0,0,0,0,0,0,0,0,
Herrell Village [23J55],Mammals,38.375,-90.375,0,0,0,0,0,0,0,0,0,0,0,0,0,0,0,0,0,0,0,0,0,0,
Hidden Valley Rock Shelter [23J7],Mammals,38.25,-90.375,0,0,0,0,0,0,0,0,0,0,0,0,0,0,0,0,0,0,0,0,0,0,
Gobbler's Knob Cairn [23HE147],Mammals,38.25,-93.5,0,0,0,0,0,0,0,0,0,0,0,0,0,0,0,0,0,0,0,0,0,0,
Blackwell Cave [23HI172],Mammals,37.96722222222222,-93.31805555555553,0,0,0,0,0,0,0,0,0,0,0,0,0,0,0,0,0,0,0,2.0,2.0,0,
Guthrey [23SA131],Mammals,39.333333333333336,-93.18333333333334,0,0,0,0,0,0,0,0,0,0,0,0,0,0,0,0,0,0,0,0,0,0,
Utz [23SA2],Mammals,39.28333333333334,-93.25,0,0,0,0,0,0,0,0,0,0,0,0,0,0,0,0,0,0,0,0,0,0,
Sorter's Bluff [23CE150],Mammals,37.60055555555555,-93.76194444444445,0,0,0,0,0,0,0,0,0,0,0,0,0,0,0,0,0,0,0,0,0,0,
Bowling Stone Mound [23CE152],Mammals,37.61694444444445,-93.65722222222223,0,0,0,0,0,0,0,0,0,0,0,0,0,0,0,0,0,0,0,0,0,0,
Sycamore Bridge Mound [23CE154],Mammals,37.6075,-93.77722222222219,0,0,0,0,0,0,0,0,0,0,0,0,0,0,0,0,0,0,0,0,0,0,
Divine Mound [23DA226],Mammals,37.50194444444445,-93.795,0,0,0,0,0,0,0,0,0,0,0,0,0,0,0,0,0,0,0,0,0,0,
Paradise [23DA246],Mammals,37.57222222222222,-93.62166666666668,0,0,0,0,0,0,0,0,0,0,0,0,0,0,0,0,0,0,0,0,0,0,
Slick Rock Mound [23PO306],Mammals,37.540833333333325,-93.5291666666667,0,0,0,0,0,0,0,0,0,0,0,0,0,0,0,0,0,0,0,0,0,0,
Bunker Hill Mound [23DA225],Mammals,37.4425,-93.66250000000002,0,0,0,0,0,0,0,0,0,0,0,0,0,0,0,0,0,0,0,0,0,0,
Umber Point Mound [23CE148],Mammals,37.62,-93.76944444444445,0,0,0,0,0,0,0,0,0,0,0,0,0,0,0,0,0,0,0,0,0,0,
Younge [20SA209],Mammals,43.25,-83.86666666666666,0,0,0,0,0,0,0,0,0,0,0,0,0,0,0,0,0,0,0,0,0,0,
Beyer,Mammals,45.866666666666674,-84.75,0,0,0,0,0,0,0,0,0,0,0,0,0,0,0,0,0,0,0,0,0,0,
20WA176,Mammals,42.11666666666667,-83.61666666666667,0,0,0,0,0,0,0,0,0,0,0,0,0,0,0,0,0,0,0,0,0,0,
Trombly House [20BY70],Mammals,43.5,-83.86666666666666,0,0,0,0,0,0,0,0,0,0,0,0,0,0,0,0,0,0,0,0,0,0,
20LP98,Mammals,43.0,-83.25,0,0,0,0,0,0,0,0,0,0,0,0,0,0,0,0,0,0,0,0,0,0,
Jahr [20TU6],Mammals,43.5,-83.61666666666667,0,0,0,0,0,0,0,0,0,0,0,0,0,0,0,0,0,0,0,0,0,0,
Armstrong [47PE12],Mammals,44.36666666666667,-92.0,0,0,0,0,0,0,0,0,0,0,0,0,0,0,0,0,0,0,0,0,0,0,
Pipe Site [47FD10],Mammals,43.916666666666664,-88.3,0,0,0,0,0,0,0,0,0,0,0,0,0,0,0,0,0,0,0,0,0,6.0,
11RI337,Mammals,41.36666666666667,-90.5,0,0,0,0,0,0,0,0,0,0,0,0,0,0,0,0,0,0,0,0,0,0,
Nile Roeder [47WN97],Mammals,44.0,-88.5,0,0,0,0,0,0,0,0,0,0,0,0,0,0,0,0,0,0,0,0,0,0,
Pammel Creek [47LC61],Mammals,43.75,-91.11666666666666,0,0,0,0,0,0,0,0,0,0,0,0,0,0,0,0,0,0,0,0,0,0,
Furman [47WN216],Mammals,44.11666666666667,-88.36666666666666,0,0,0,0,0,0,0,0,0,0,0,0,0,0,0,0,0,0,0,0,0,0,
Thompson's Shelter [44GS21],Mammals,37.25,-80.5,0,0,0,0,0,0,0,0,0,0,0,0,0,0,0,0,0,0,0,0,0,0,
Fingerson Mound [21PO2],Mammals,45.61666666666666,-95.36666666666666,0,0,0,0,0,0,0,0,0,0,0,0,0,0,0,0,0,0,0,0,0,0,
White Oaks Mound [21IC1],Mammals,47.25,-93.75,0,0,0,0,0,0,0,0,0,0,0,0,0,0,0,0,0,0,0,0,0,0,
Dutchess Quarry Cave,Mammals,41.35,-74.36666666666666,0,0,0,0,0,0,0,0,0,0,0,0,0,0,0,0,0,0,0,0,0,0,
John Green [44GV1],Mammals,36.61666666666666,-77.5,0,0,0,0,0,0,0,0,0,0,0,0,0,0,0,0,0,0,0,0,0,0,
Litten [44WG4],Mammals,36.722222222222214,-81.87472222222222,0,0,0,0,0,0,0,0,0,0,0,0,0,0,0,0,0,0,0,0,0,0,
Reedy Creek [44HA22],Mammals,36.61666666666666,-78.86666666666666,0,0,0,0,0,0,0,0,0,0,0,0,0,0,0,0,0,0,0,0,0,0,
Crab Orchard [44T21],Mammals,37.11666666666667,-81.5,0,0,0,0,0,0,0,0,0,0,0,0,0,0,0,0,0,0,0,0,0,0,
Hercules [44AY40],Mammals,37.75,-79.86666666666666,0,0,0,0,0,0,0,0,0,0,0,0,0,0,0,0,0,0,0,0,0,0,
Thomas [44MY18],Mammals,37.11666666666667,-80.5,0,0,0,0,0,0,0,0,0,0,0,0,0,0,0,0,0,0,0,0,0,0,
Hidden Valley Rockshelter [44BA31],Mammals,38.0,-79.75,0,0,0,0,0,0,0,0,0,0,0,0,0,0,0,0,0,0,0,0,0,0,
Bartke Mound [21PO1],Mammals,45.61666666666666,-95.36666666666666,0,0,0,0,0,0,0,0,0,0,0,0,0,0,0,0,0,0,0,0,0,0,
Quirksburg [44SH3],Mammals,38.61666666666666,-78.61666666666667,0,0,0,0,0,0,0,0,0,0,0,0,0,0,0,0,0,0,0,0,0,0,
Conant's Hill,Mammals,41.75,-70.75,0,0,0,0,0,0,0,0,0,0,0,0,0,0,0,0,0,0,0,0,0,0,
Carlson Annis [BT5],Mammals,37.25,-86.75,0,0,0,0,0,0,0,0,0,0,0,0,0,0,0,0,0,0,0,0,0,0,
Seabrook [NH-47-22],Mammals,43.0,-71.0,0,0,0,0,0,0,0,0,0,0,0,0,0,0,0,0,0,0,0,0,0,0,
Lamoka Lake,Mammals,42.416666666666664,-77.08333333333333,0,0,0,0,0,0,0,0,0,0,0,0,0,0,0,0,0,0,0,0,0,0,
Keyser Farm,Mammals,38.75,-78.36666666666666,0,0,0,0,0,0,0,0,0,0,0,0,0,0,0,0,0,0,0,0,0,0,
Scaccia [Cda-17-3],Mammals,42.76722222222224,-77.87666666666665,0,0,0,0,0,0,0,0,0,0,0,0,0,0,0,0,0,0,0,0,0,0,
Pickup Pueblo,Mammals,31.75,-106.36666666666666,0,0,0,0,0,0,0,0,0,0,0,0,0,0,0,0,0,0,0,0,0,0,
McGraw [33RO108],Mammals,39.31666666666666,-82.9,0,0,0,0,0,0,0,0,0,0,0,0,0,0,0,0,0,0,0,0,0,0,
Hanging Valley [13HR28],Mammals,41.75,-96.0,0,0,0,0,0,0,0,0,0,0,0,0,0,0,0,0,0,0,0,0,0,0,
Gore Pit [34CM131],Mammals,34.61666666666666,-98.25,0,0,0,0,0,0,0,0,0,0,0,0,0,0,0,0,0,0,0,0,0,0,
Boundary Mound Group [32SI1],Mammals,46.0,-100.61666666666667,0,0,0,0,0,0,0,0,0,0,0,0,0,0,0,0,0,0,0,0,0,0,
Preston Rockshelter [47GT157],Mammals,42.75,-90.61666666666667,0,0,0,0,0,0,0,0,0,0,0,0,0,0,0,0,0,0,0,0,2.0,0,
Seminole Sink [41VV620],Mammals,29.75,-101.25,0,0,0,0,0,0,0,0,0,0,0,0,0,0,0,0,0,0,0,0,0,0,
Pump Canal,Mammals,29.866666666666667,-90.36666666666666,0,0,0,0,0,0,0,0,0,0,0,0,0,0,0,0,0,0,0,0,0,0,
Morton Shell Mound [16IB3],Mammals,29.75,-91.75,0,0,0,0,0,0,0,0,0,0,0,0,0,0,0,0,0,0,0,0,0,0,
Everett Knoll,Mammals,41.11666666666667,-81.5,0,0,0,0,0,0,0,0,0,0,0,0,0,0,0,0,0,0,0,0,0,0,
Peter's Cave,Mammals,39.18333333333333,-82.8,0,0,0,0,0,0,0,0,0,0,0,0,0,0,0,0,0,0,0,0,0,0,
Varner [36GR1],Mammals,39.866666666666674,-80.11666666666666,0,0,0,0,0,0,0,0,0,0,0,0,0,0,0,0,0,0,0,0,0,0,
Fox Lake Village [21MR2],Mammals,43.61666666666666,-94.61666666666667,0,0,0,0,0,0,0,0,0,0,0,0,0,0,0,0,0,0,0,0,0,0,
Pike Bay Mound [21SL1],Mammals,47.75,-92.36666666666666,0,0,0,0,0,0,0,0,0,0,0,0,0,0,0,0,0,0,0,0,0,0,
McKinstry [21KC2],Mammals,48.5,-93.5,0,0,0,0,0,0,0,0,0,0,0,0,0,0,0,0,0,0,0,0,0,0,
Smith Mound No. 4 [21KC3],Mammals,48.5,-93.61666666666667,0,0,0,0,0,0,0,0,0,0,0,0,0,0,0,0,0,0,0,0,0,0,
Scarem [36WH22],Mammals,40.36666666666667,-80.25,0,0,0,0,0,0,0,0,0,0,0,0,0,0,0,0,0,0,0,0,0,4.0,
Johnston [36IN2],Mammals,40.5,-79.25,0,0,0,0,0,0,0,0,0,0,0,0,0,0,0,0,0,0,0,0,0,0,
Buchanan Rock Shelter [36BV83],Mammals,40.36666666666667,-80.36666666666666,0,0,0,0,0,0,0,0,0,0,0,0,0,0,0,0,0,0,0,0,0,0,
Woodruff Rockshelter [6LF126],Mammals,41.61666666666666,-73.25,0,0,0,0,0,0,0,0,0,0,0,0,0,0,0,0,0,0,0,0,0,0,
D'Olive Creek [1BA196],Mammals,30.5,-87.86666666666666,0,0,0,0,0,0,0,0,0,0,0,0,0,0,0,0,0,0,0,0,0,0,
Seven Springs [CE101x3],Mammals,34.11666666666667,-85.75,0,0,0,0,0,0,0,0,0,0,0,0,0,0,0,0,0,0,0,0,0,0,
1LE21,Mammals,32.5,-85.11666666666666,0,0,0,0,0,0,0,0,0,0,0,0,0,0,0,0,0,0,0,0,0,0,
Callawassie Island Burial Mound [38BU19],Mammals,32.25,-80.75,0,0,0,0,0,0,0,0,0,0,0,0,0,0,0,0,0,0,0,0,0,0,
Jerry Long Cave,Mammals,39.36666666666667,-91.61666666666667,0,0,0,0,0,0,0,0,0,0,0,0,0,0,0,0,0,0,0,0,0,4.0,
Saba Shelter [23BE149],Mammals,38.25,-93.46666666666667,0,0,0,0,0,0,0,0,0,0,0,0,0,0,0,0,0,0,0,0,0,2.0,
Smith Shelter [23CR80],Mammals,38.1,-91.16666666666666,0,0,0,0,0,0,0,0,0,0,0,0,0,0,0,0,0,0,0,0,0,0,
Patten [23CR60],Mammals,38.11666666666667,-91.11666666666666,0,0,0,0,0,0,0,0,0,0,0,0,0,0,0,0,0,0,0,0,0,0,
Merkel Cave [23WA61],Mammals,38.11666666666667,-91.11666666666666,0,0,0,0,0,0,0,0,0,0,0,0,0,0,0,0,0,0,0,0,0,0,
Thurman [23HE151],Mammals,38.27,-93.59027777777777,0,0,0,0,0,0,0,0,0,0,0,0,0,0,0,0,0,0,0,0,0,0,
Eckhardt Cairn [23HE150],Mammals,38.25,-93.5,0,0,0,0,0,0,0,0,0,0,0,0,0,0,0,0,0,0,0,0,0,0,
Mount Ilo Cairn [23HE148],Mammals,38.25,-93.5,0,0,0,0,0,0,0,0,0,0,0,0,0,0,0,0,0,0,0,0,0,0,
Pot Shelter [23CR149],Mammals,38.1,-91.16666666666666,0,0,0,0,0,0,0,0,0,0,0,0,0,0,0,0,0,0,0,0,0,0,
Chapuis [23PI76],Mammals,39.36666666666667,-91.11666666666666,0,0,0,0,0,0,0,0,0,0,0,0,0,0,0,0,0,0,0,0,0,0,
Bundy [23PI77],Mammals,39.36666666666667,-91.11666666666666,0,0,0,0,0,0,0,0,0,0,0,0,0,0,0,0,0,0,0,0,0,0,
Rodgers Shelter [23BE125],Mammals,38.08888888888888,-93.35000000000002,0,0,0,0,0,0,0,0,0,0,0,0,0,0,0,0,0,0,0,0,0,0,
23FR234,Mammals,38.36666666666667,-91.11666666666666,0,0,0,0,0,0,0,0,0,0,0,0,0,0,0,0,0,0,0,0,2.0,0,
Albert Mound [23CE196],Mammals,37.61666666666666,-93.75,0,0,0,0,0,0,0,0,0,0,0,0,0,0,0,0,0,0,0,0,0,0,
Amity Mound [23CE190],Mammals,37.61666666666666,-93.75,0,0,0,0,0,0,0,0,0,0,0,0,0,0,0,0,0,0,0,0,0,0,
Clemons Mound [23CE122],Mammals,37.61666666666666,-93.75,0,0,0,0,0,0,0,0,0,0,0,0,0,0,0,0,0,0,0,0,0,0,
Slone [15PI11],Mammals,37.36666666666667,-82.25,0,0,0,0,0,0,0,0,0,0,0,0,0,0,0,0,0,0,0,0,0,0,
Norris Farm 36 [11F],Mammals,40.36666666666667,-90.0,0,0,0,0,0,0,0,0,0,0,0,0,0,0,0,0,0,0,0,0,0,0,
Powell Mound [11MS46],Mammals,38.61666666666666,-90.0,0,0,0,0,0,0,0,0,0,0,0,0,0,0,0,0,0,0,0,0,0,0,
Dickson Camp [11F35D],Mammals,40.3513888888889,-90.11972222222222,0,0,0,0,0,0,0,0,0,0,0,0,0,0,0,0,0,0,0,0,0,0,
Knight,Mammals,39.280833333333334,-90.73444444444446,0,0,0,0,0,0,0,0,0,0,0,0,0,0,0,0,0,0,0,0,0,0,
Snyder,Mammals,39.06944444444444,-90.6688888888889,0,0,0,0,0,0,0,0,0,0,0,0,0,0,0,0,0,0,0,0,0,0,
Pete Klunk Mound Group,Mammals,39.30277777777778,-90.6136111111111,0,0,0,0,0,0,0,0,0,0,0,0,0,0,0,0,0,0,0,0,0,0,
Hemphill Mound,Mammals,39.93194444444445,-90.54805555555556,0,0,0,0,0,0,0,0,0,0,0,0,0,0,0,0,0,0,0,0,0,0,
Baehr Mound #2,Mammals,39.9286111111111,-90.54805555555556,0,0,0,0,0,0,0,0,0,0,0,0,0,0,0,0,0,0,0,0,0,0,
Polecat Creek,Mammals,39.52055555555555,-88.02111111111111,0,0,0,0,0,0,0,0,0,0,0,0,0,0,0,0,0,0,0,0,0,0,
Meyer Cave,Mammals,38.39666666666666,-90.25388888888888,0,0,0,0,0,0,0,0,0,0,4.0,0,0,0,0,0,0,0,0,0,0,4.0,
Sister's Creek Mound 54 [11F],Mammals,40.399166666666666,-90.05972222222223,0,0,0,0,0,0,0,0,0,0,0,0,0,0,0,0,0,0,0,0,0,0,
Ogden-Fettie Mound 191 [Mitchell Mound],Mammals,40.33972222222222,-90.11722222222222,0,0,0,0,0,0,0,0,0,0,0,0,0,0,0,0,0,0,0,0,0,0,
Gooden Mound 86 [Tampico Group],Mammals,40.416388888888896,-90.01611111111112,0,0,0,0,0,0,0,0,0,0,0,0,0,0,0,0,0,0,0,0,0,0,
Morton Mound 7 [11F7],Mammals,40.36611111111111,-90.09361111111112,0,0,0,0,0,0,0,0,0,0,0,0,0,0,0,0,0,0,0,0,0,0,
Morton Mound 10 [11F10],Mammals,40.36611111111111,-90.09361111111112,0,0,0,0,0,0,0,0,0,0,0,0,0,0,0,0,0,0,0,0,0,0,
Morton Mound 11 [11F11],Mammals,40.36611111111111,-90.09361111111112,0,0,0,0,0,0,0,0,0,0,0,0,0,0,0,0,0,0,0,0,0,0,
Morton Mound 12 [11F12],Mammals,40.36611111111111,-90.09361111111112,0,0,0,0,0,0,0,0,0,0,0,0,0,0,0,0,0,0,0,0,0,0,
Morton Mound 13 [11F13],Mammals,40.36611111111111,-90.09361111111112,0,0,0,0,0,0,0,0,0,0,0,0,0,0,0,0,0,0,0,0,0,0,
Morton Mound 680 [11F680],Mammals,40.36611111111111,-90.09361111111112,0,0,0,0,0,0,0,0,0,0,0,0,0,0,0,0,0,0,0,0,0,0,
Morton Mound 14 [11F14],Mammals,40.36611111111111,-90.09361111111112,0,0,0,0,0,0,0,0,0,0,0,0,0,0,0,0,0,0,0,0,0,0,
Morton Mound 15 [11F15],Mammals,40.36611111111111,-90.09361111111112,0,0,0,0,0,0,0,0,0,0,0,0,0,0,0,0,0,0,0,0,0,0,
Lundy [11JD140],Mammals,42.25,-90.36666666666666,0,0,0,0,0,0,0,0,0,0,0,0,0,0,0,0,0,0,0,0,0,0,
Kingfish,Mammals,38.25,-89.86666666666666,0,0,0,0,0,0,0,0,0,0,0,0,0,0,0,0,0,0,0,0,0,0,
Schild,Mammals,39.2338888888889,-90.55194444444444,0,0,0,0,0,0,0,0,0,0,0,0,0,0,0,0,0,0,0,0,0,0,
Plum Island [11LS2],Mammals,41.32638888888889,-89.00111111111113,0,0,0,0,0,0,0,0,0,0,0,0,0,0,0,0,0,0,0,0,0,0,
Dohack [11S642],Mammals,38.483888888888885,-90.215,0,0,0,0,0,0,0,0,0,0,0,0,0,0,0,0,0,0,0,0,0,0,
Stilwell,Mammals,39.471666666666664,-90.61222222222223,0,0,0,0,0,0,0,0,0,0,0,0,0,0,0,0,0,0,0,0,0,0,
Frederick [11SC11],Mammals,40.069722222222225,-90.43666666666668,0,0,0,0,0,0,0,0,0,0,0,0,0,0,0,0,0,0,0,0,0,0,
Black Earth [11SA87],Mammals,37.66194444444445,-88.62444444444446,0,0,0,0,0,0,0,0,0,0,0,0,0,0,0,0,0,0,0,0,0,0,
Napoleon Hollow [11PK500],Mammals,39.68666666666666,-90.64416666666665,0,0,0,0,0,0,0,0,0,0,0,0,0,0,0,0,0,0,0,0,0,0,
Hill Creek Homestead,Mammals,39.36666666666667,-90.61666666666667,0,0,0,0,0,0,0,0,0,0,0,0,0,0,0,0,0,0,0,0,0,0,
Burkemper [23LN104],Mammals,38.866666666666674,-90.75,0,0,0,0,0,0,0,0,0,0,0,0,0,0,0,0,0,0,0,0,0,0,
Marty Coolidge [21CL-18],Mammals,38.28333333333334,-89.9,0,0,0,0,0,0,0,0,0,0,0,0,0,0,0,0,0,0,0,0,0,0,
Rench [11P4],Mammals,40.61666666666666,-89.61666666666667,0,0,0,0,0,0,0,0,0,0,0,0,0,0,0,0,0,0,0,0,0,0,
Lowe [11CW104],Mammals,39.0,-87.75,0,0,0,0,0,0,0,0,0,0,0,0,0,0,0,0,0,0,0,0,0,0,
State Road Coulee [47LC176],Mammals,43.75,-91.11666666666666,0,0,0,0,0,0,0,0,0,0,0,0,0,0,0,0,0,0,0,0,0,2.0,
Wilson Mounds,Mammals,37.99583333333334,-88.0316666666667,0,0,0,0,0,0,0,0,0,0,0,0,0,0,0,0,0,0,0,0,0,0,
Newbridge,Mammals,39.36666666666667,-90.5,0,0,0,0,0,0,0,0,0,0,0,0,0,0,0,0,0,0,0,0,0,0,
Whitefish Dunes [47DR167],Mammals,45.0,-87.11666666666666,0,0,0,0,0,0,0,0,0,0,0,0,0,0,0,0,0,0,0,0,0,0,
47LC44,Mammals,43.75,-91.11666666666666,0,0,0,0,0,0,0,0,0,0,0,0,0,0,0,0,0,0,0,0,0,2.0,
Sand Lake,Mammals,43.75,-91.11666666666666,0,0,0,0,0,0,0,0,0,0,0,0,0,0,0,0,0,0,0,0,0,2.0,
Tremaine [47LC95],Mammals,43.75,-91.11666666666666,0,0,0,0,0,0,0,0,0,0,0,0,0,0,0,0,0,0,0,0,0,2.0,
Carroll Cave [VP-689],Mammals,37.75,-92.5,0,0,0,0,0,0,0,0,0,0,0,0,0,0,0,0,0,0,0,0,0,0,
Harris Neck Airfield [9McI41],Mammals,31.5,-81.25,0,0,0,0,0,0,0,0,0,0,0,0,0,0,0,0,0,0,0,0,0,0,
Hi Card Ranch [riv-1806],Mammals,33.5,-117.25,0,0,0,0,0,0,0,0,0,0,0,0,0,0,0,0,0,0,0,0,0,0,
Glen Annie Canyon [SBA 142],Mammals,34.42777777777778,-119.87777777777777,0,0,0,0,0,0,0,0,0,0,0,0,0,0,0,0,0,0,0,0,0,0,
St. Simons Shell Ring,Mammals,31.116666666666667,-81.36666666666666,0,0,0,0,0,0,0,0,0,0,0,0,0,0,0,0,0,0,0,0,0,0,
St. Simons Survey,Mammals,31.116666666666667,-81.36666666666666,0,0,0,0,0,0,0,0,0,0,0,0,0,0,0,0,0,0,0,0,0,0,
Minim Island [38GE46],Mammals,33.25,-79.25,0,0,0,0,0,0,0,0,0,0,0,0,0,0,0,0,0,0,0,0,0,0,
Rabbit Mound [38AL15],Mammals,33.0,-81.5,0,0,0,0,0,0,0,0,0,0,0,0,0,0,0,0,0,0,0,0,0,0,
Abercrombie,Mammals,32.36666666666667,-85.0,0,0,0,0,0,0,0,0,0,0,0,0,0,0,0,0,0,0,0,0,0,0,
Mountain Lake Village [21CO1],Mammals,43.9204,-94.89009999999999,0,0,0,0,0,0,0,0,0,0,0,0,0,0,0,0,0,0,0,0,0,0,
Agayadan Villlage [UNI-067],Mammals,54.92579,-164.207705,0,0,0,0,0,0,0,0,0,0,0,0,0,0,0,0,0,0,0,0,0,0,
