Site,Type,Latitude,Longitude,22000-21000,21000-20000,20000-19000,19000-18000,18000-17000,17000-16000,16000-15000,15000-14000,14000-13000,13000-12000,12000-11000,11000-10000,10000-9000,9000-8000,8000-7000,7000-6000,6000-5000,5000-4000,4000-3000,3000-2000,2000-1000,1000-present
Jones-Miller,Mammals,39.866666666666674,-102.11666666666666,0,0,0,0,0,0,0,0,0,0,0,0,0,0,0,0,0,0,0,0,0,0,
Bell Cave [48AB304],Mammals,41.75,-105.36666666666666,0,0,0,0,0,0,0,0,0,0,0,0,0,0,0,0,0,0,0,0,0,0,
Little Box Elder Cave [48CO287],Mammals,42.61666666666666,-105.61666666666667,0,0,0,0,0,0,0,0,0,0,0,0,0,0,0,0,0,0,0,0,0,0,
Little Canyon Creek Cave [48WA323],Mammals,43.866666666666674,-107.61666666666667,0,0,0,0,0,0,0,0,0,0,0,0,0,0,0,0,0,0,0,0,0,0,
Natural Trap Cave,Mammals,44.866666666666674,-108.11666666666666,0,0,0,0,0,0,0,0,0,0,0,0,0,0,0,0,0,0,0,0,0,0,
Wilson Butte Cave [10Je6],Mammals,42.766666666666666,-114.21666666666664,0,0,0,0,0,0,0,0,0,0,0,0,0,0,0,0,0,0,0,0,0,0,
Crystal Ball Cave,Mammals,39.0,-113.0,0,0,0,0,0,0,0,0,0,0,0,0,0,0,0,0,0,0,0,0,0,0,
January Cave [EbPp-Vp],Mammals,50.1883333333333,-114.518333333333,0,0,0,0,0,0,0,0,0,0,0,0,0,0,0,0,0,0,0,0,0,0,
Agate Basin [48NO201],Mammals,43.36666666666667,-104.06666666666668,0,0,0,0,0,0,0,0,0,0,0,2.0,0,0,0,0,0,0,0,0,0,0,
Bush Shelter [48WA324],Mammals,43.61666666666666,-107.25,0,0,0,0,0,0,0,0,0,0,0,0,0,0,0,0,0,0,0,0,0,0,
Prospects Shelter [48BH305],Mammals,44.866666666666674,-108.11666666666666,0,0,0,0,0,0,0,0,0,0,0,0,0,0,0,0,0,0,0,0,0,0,
Horned Owl Cave [48AB305],Mammals,41.56666666666667,-105.51666666666668,0,0,0,0,0,0,0,0,0,0,0,0,0,0,0,0,0,0,0,0,0,0,
Medicine Lodge Creek [48BH499],Mammals,44.25,-107.5,0,0,0,0,0,0,0,0,0,0,0,0,0,0,0,0,0,0,0,0,0,0,
River Bend [48NA202],Mammals,42.75,-106.36666666666666,0,0,0,0,0,0,0,0,0,0,0,0,0,0,0,0,0,0,0,0,0,32.0,
Porcupine Cave,Mammals,38.729166666666664,-105.8613888888889,0,0,0,0,0,0,0,0,0,0,0,0,0,0,0,0,0,0,0,0,0,0,
Mondrian Tree [32MZ58],Mammals,47.95,-103.9,0,0,0,0,0,0,0,0,0,0,0,0,0,0,0,0,0,0,1.0,2.0,0,1.0,
False Cougar Cave [24CB84],Mammals,45.11666666666667,-108.25,0,0,0,0,0,0,0,0,0,0,0,0,0,0,0,0,0,0,0,0,0,0,
Warm Springs #1,Mammals,46.11666666666667,-112.61666666666667,0,0,0,0,0,0,0,0,0,0,0,0,0,0,0,0,0,0,0,0,0,0,
Morse Creek #1,Mammals,46.61666666666666,-113.11666666666666,0,0,0,0,0,0,0,0,0,0,0,0,0,0,0,0,0,0,0,0,0,0,
Haystack Cave [5GN189],Mammals,38.36666666666667,-107.11666666666666,0,0,0,0,0,0,0,8.0,0,8.0,0,0,0,0,0,0,0,0,0,0,0,0,
Gatecliff Shelter [26NY301],Mammals,39.0,-116.78333333333332,0,0,0,0,0,0,0,0,0,0,0,0,0,0,0,0,0,0,0,0,0,0,
Marmes Rockshelter [45FR50],Mammals,46.61666666666666,-118.2,0,0,0,0,0,0,0,0,0,0,0,0,0,0,0,0,0,0,0,0,0,0,
Kennewick Roadcut [Kennewick] [45BN265],Mammals,46.0,-119.11666666666666,0,0,0,0,0,0,0,0,0,0,0,0,0,0,0,0,0,0,0,0,0,0,
45AD2,Mammals,47.0,-118.36666666666666,0,0,0,0,0,0,0,0,0,0,0,0,0,0,0,0,0,0,0,0,0,0,
Timothy's Village [Alpaweyma] [45AS82],Mammals,46.36666666666667,-117.11666666666666,0,0,0,0,0,0,0,0,0,0,0,0,0,0,0,0,0,0,0,12.0,12.0,0,
45AS80,Mammals,46.36666666666667,-117.11666666666666,0,0,0,0,0,0,0,0,0,0,0,0,0,0,0,0,0,0,0,0,2.0,4.0,
Pig Farm [45AS78],Mammals,46.36666666666667,-117.11666666666666,0,0,0,0,0,0,0,0,0,0,0,0,0,0,0,0,0,0,0,0,0,2.0,
Last Supper Cave [26HU102],Mammals,41.61666666666666,-119.11666666666666,0,0,0,0,0,0,0,0,0,0,0,0,0,0,0,0,0,0,0,0,0,0,
Hanging Rock Shelter,Mammals,41.5,-119.36666666666666,0,0,0,0,0,0,0,0,0,0,0,0,0,0,0,0,0,0,0,0,0,0,
Dry Cave,Mammals,32.37361111111111,-104.48194444444442,0,0,0,0,0,0,0,0,0,0,0,0,0,0,0,0,0,0,0,0,0,0,
Howell's Ridge Cave [UTEP32],Mammals,31.916666666666668,-108.5,0,0,0,0,0,0,0,0,0,0,0,0,0,0,0,0,0,0,0,0,0,0,
Isleta Cave No. 1 [UTEP42],Mammals,34.866666666666674,-106.75,0,0,0,0,0,0,0,0,0,0,0,0,0,0,0,0,0,0,0,0,0,0,
Isleta Cave No. 2 [UTEP46],Mammals,34.866666666666674,-106.75,0,0,0,0,0,0,0,0,0,0,0,0,0,0,0,0,0,0,0,0,0,0,
U-Bar Cave [LA5689],Mammals,31.4745,-108.4337,0,0,0,0,0,0,0,0,0,0,0,0,0,0,0,0,0,0,0,0,0,0,
Ezra's Retreat [26HU300],Mammals,41.5,-117.11666666666666,0,0,0,0,0,0,0,0,0,0,0,0,0,0,0,0,0,0,6.0,0,8.0,2.0,
Granite Point [45WT41],Mammals,46.61666666666666,-117.36666666666666,0,0,0,0,0,0,0,0,0,0,0,0,0,0,0,0,0,0,0,0,0,0,
Owl Cave 1,Mammals,38.9,-114.05,0,0,0,0,0,0,0,0,0,0,0,0,0,0,0,0,0,0,0,0,0,10.0,
Owl Cave 2,Mammals,38.9,-114.05,0,0,0,0,0,0,0,0,0,0,0,0,0,0,0,0,0,0,0,0,0,0,
James Creek Shelter [26EU843],Mammals,40.75,-116.25,0,0,0,0,0,0,0,0,0,0,0,0,0,0,0,0,0,0,0,0,0,0,
Dark Canyon Cave,Mammals,32.25,-104.5,0,0,0,0,0,0,0,0,0,0,0,0,0,0,0,0,0,0,0,0,0,0,
Antelope Cave [SBC1.10.10],Mammals,35.36666666666667,-115.5,0,0,0,0,0,0,0,0,0,0,0,0,0,0,0,0,0,0,0,0,0,0,
Kokoweef Cave [SBC1.11.13],Mammals,35.416666666666664,-115.5,0,0,0,0,0,0,0,0,0,0,0,0,0,0,0,0,0,0,0,0,0,0,
Chief Joseph Dam Site 45OK4,Mammals,48.11666666666667,-119.11666666666666,0,0,0,0,0,0,0,0,0,0,0,0,0,0,0,0,0,0,2.0,0,0,0,
Chief Joseph Dam Site 45DO204,Mammals,48.11666666666667,-119.25,0,0,0,0,0,0,0,0,0,0,0,0,0,0,0,0,0,0,0,2.0,0,0,
Chief Joseph Dam Site 45DO273,Mammals,48.0,-119.36666666666666,0,0,0,0,0,0,0,0,0,0,0,0,0,0,0,0,0,0,0,0,0,12.0,
Chief Joseph Dam Site 45OK18,Mammals,48.0,-119.36666666666666,0,0,0,0,0,0,0,0,0,0,0,0,0,0,0,0,0,0,4.0,0,0,0,
Chief Joseph Dam Site 45DO326,Mammals,48.0,-119.36666666666666,0,0,0,0,0,0,0,0,0,0,0,0,0,0,0,0,0,0,0,4.0,4.0,12.0,
Chief Joseph Dam Site 45DO282,Mammals,48.0,-119.36666666666666,0,0,0,0,0,0,0,0,0,0,0,0,0,0,0,0,0,0,0,0,0,0,
Chief Joseph Dam Site 45OK258,Mammals,48.11666666666667,-119.11666666666666,0,0,0,0,0,0,0,0,0,0,0,0,0,0,0,0,0,0,0,0,0,4.0,
Chief Joseph Dam Site 45OK11,Mammals,48.11666666666667,-119.11666666666666,0,0,0,0,0,0,0,0,0,0,0,0,0,0,0,0,0,0,0,0,0,0,
Chief Joseph Dam Site 45OK2,Mammals,48.11666666666667,-119.0,0,0,0,0,0,0,0,0,0,0,0,0,0,0,0,0,0,0,0,2.0,0,6.0,
Chief Joseph Dam Site 45OK2A,Mammals,48.11666666666667,-119.0,0,0,0,0,0,0,0,0,0,0,0,0,0,0,0,0,0,0,0,0,0,0,
Chief Joseph Dam Site 45DO211,Mammals,48.0,-119.0,0,0,0,0,0,0,0,0,0,0,0,0,0,0,0,0,0,0,12.0,34.0,0,0,
Chief Joseph Dam Site 45DO285,Mammals,48.0,-119.0,0,0,0,0,0,0,0,0,0,0,0,0,0,0,0,0,0,0,0,0,0,22.0,
Chief Joseph Dam Site 45DO214,Mammals,48.0,-119.0,0,0,0,0,0,0,0,0,0,0,0,0,0,0,0,0,0,0,0,0,14.0,2.0,
Chief Joseph Dam Site 45DO242,Mammals,48.0,-119.11666666666666,0,0,0,0,0,0,0,0,0,0,0,0,0,0,0,0,0,0,0,0,0,0,
Bear River No. 2,Mammals,41.5,-112.11666666666666,0,0,0,0,0,0,0,0,0,0,0,0,0,0,0,0,0,0,0,0,0,0,
Owl Cave [Wasden Site] [10-BV-30],Mammals,43.6037,-112.3914,0,0,0,0,0,0,0,0,0,0,0,0,0,0,17.0,8.0,0,0,2.0,0,0,1.0,
Slivovitz Shelter [26NY1272],Mammals,38.11666666666667,-115.61666666666667,0,0,0,0,0,0,0,0,0,0,0,0,0,0,0,0,0,0,0,0,2.0,2.0,
Duck Point [Carr-Trimble],Mammals,42.61666666666666,-112.86666666666666,0,0,0,0,0,0,0,0,0,0,0,0,0,0,0,0,0,0,0,0,0,0,
Avey's Orchard [45DO176],Mammals,47.36666666666667,-120.25,0,0,0,0,0,0,0,0,0,0,0,0,0,0,0,0,0,0,0,0,0,0,
Toquima Cave [Potts Cave],Mammals,39.18333333333333,-117.0,0,0,0,0,0,0,0,0,0,0,0,0,0,0,0,0,0,0,0,0,0,0,
Triple T Shelter [NY345],Mammals,39.0,-116.86666666666666,0,0,0,0,0,0,0,0,0,0,0,0,0,0,0,0,0,0,0,0,0,0,
Raven Camp,Mammals,37.5841472222222,-118.236488888889,0,0,0,0,0,0,0,0,0,0,0,0,0,0,0,0,0,0,0,0,0,0,
Crooked Forks,Mammals,37.5841472222222,-118.236488888889,0,0,0,0,0,0,0,0,0,0,0,0,0,0,0,0,0,0,0,0,0,0,
Rancho Deluxe,Mammals,37.5841472222222,-118.236488888889,0,0,0,0,0,0,0,0,0,0,0,0,0,0,0,0,0,0,0,0,0,0,
Pit Stop Quarry [NAU QSP locality 897],Mammals,34.5,-110.1,0,0,0,0,0,0,0,0,0,0,0,0,0,0,0,0,0,0,0,0,0,0,
