Site,Type,Latitude,Longitude,22000-21000,21000-20000,20000-19000,19000-18000,18000-17000,17000-16000,16000-15000,15000-14000,14000-13000,13000-12000,12000-11000,11000-10000,10000-9000,9000-8000,8000-7000,7000-6000,6000-5000,5000-4000,4000-3000,3000-2000,2000-1000,1000-present
Lindenmeier [5LR13],Mammals,40.866666666666674,-105.0,0,0,0,0,0,0,0,0,0,0,2.0,0,0,2.0,0,0,0,0,0,0,0,0,
Moonshiner,Mammals,43.36666666666667,-112.61666666666667,0,0,0,0,0,0,0,0,0,0,0,0,0,0,0,0,0,0,0,0,0,0,
Jaguar Cave [Cave No. 2],Mammals,44.28138888888888,-112.91527777777776,0,0,0,0,0,0,0,0,0,0,0,0,0,0,0,0,0,0,0,0,0,0,
Little Box Elder Cave [48CO287],Mammals,42.61666666666666,-105.61666666666667,0,0,0,0,0,0,0,0,0,0,0,0,0,0,0,0,0,0,0,0,0,0,
New Paris #4 [Lloyd's Rock Hole],Mammals,40.08333333333333,-78.65,0,0,0,0,0,0,0,0,0,0,52.0,0,0,0,0,0,0,0,0,0,0,0,
Natural Chimneys,Mammals,38.36666666666667,-78.08333333333333,0,0,0,0,0,0,0,0,0,0,0,0,0,0,0,0,0,0,0,0,0,0,
Clark's Cave,Mammals,38.0861111111111,-79.65694444444445,0,0,0,0,0,0,0,0,0,0,0,0,0,0,0,0,0,0,0,0,0,0,
Bat Cave (US:Missouri:Pulaski),Mammals,37.866666666666674,-92.25,0,0,0,0,0,0,0,0,0,0,0,0,0,0,0,0,0,0,0,0,0,0,
Middle Butte Cave,Mammals,43.36666666666667,-112.61666666666667,0,0,0,0,0,0,0,0,0,0,0,0,0,0,0,0,17.0,0,0,0,0,17.0,
Oakfield [MDa1-4],Mammals,43.0,-78.25,0,0,0,0,0,0,0,0,0,0,0,0,0,0,0,0,0,0,0,0,0,4.0,
Lawson [AgHh-1],Mammals,43.0125,-81.3,0,0,0,0,0,0,0,0,0,0,0,0,0,0,0,0,0,0,0,0,0,0,
Ft. Michilimackinac,Mammals,45.8,-84.75,0,0,0,0,0,0,0,0,0,0,0,0,0,0,0,0,0,0,0,0,0,0,
North Cove [25HN164],Mammals,40.11666666666667,-99.36666666666666,0,0,0,0,0,0,0,4.0,0,4.0,0,0,0,0,0,0,0,0,0,0,0,0,
Harder [FbNs-1],Mammals,52.21027777777777,-107.05027777777778,0,0,0,0,0,0,0,0,0,0,0,0,0,0,0,0,0,0,0,0,0,0,
Big Goose Creek [48SH313],Mammals,44.73333333333333,-107.15,0,0,0,0,0,0,0,0,0,0,0,0,0,0,0,0,0,0,0,0,0,0,
Buffalo Hump Site [48SW5057],Mammals,42.0,-108.36666666666666,0,0,0,0,0,0,0,0,0,0,0,0,0,0,0,0,0,0,0,0,5.0,0,
Smith Falls Local Fauna,Mammals,42.75,-100.11666666666666,0,0,0,0,0,0,0,0,0,0,1.0,0,0,0,0,0,0,0,0,0,0,0,
Litchfield Local Fauna [SM-102],Mammals,41.11666666666667,-99.11666666666666,0,0,0,0,0,0,0,0,0,0,3.0,0,0,0,0,0,0,0,0,0,0,0,
Morse Creek #1,Mammals,46.61666666666666,-113.11666666666666,0,0,0,0,0,0,0,0,0,0,0,0,0,0,0,0,0,0,0,0,0,0,
Hagen [24DW2],Mammals,47.0,-104.61666666666667,0,0,0,0,0,0,0,0,0,0,0,0,0,0,0,0,0,0,0,0,0,0,
Pictograph Cave [Inscription Cave] [24YL1],Mammals,45.61666666666666,-108.36666666666666,0,0,0,0,0,0,0,0,0,0,0,0,0,0,0,0,0,0,0,0,0,0,
Prairie Dog Hamlet [5MT4614],Mammals,37.5,-108.5,0,0,0,0,0,0,0,0,0,0,0,0,0,0,0,0,0,0,0,0,0,0,
Lemoc Shelter [5MT2151],Mammals,37.5,-108.5,0,0,0,0,0,0,0,0,0,0,0,0,0,0,0,0,0,0,0,0,0,0,
Grass Mesa Village [5MT0023],Mammals,37.52778,-108.55472,0,0,0,0,0,0,0,0,0,0,0,0,0,0,0,0,0,0,0,0,0,0,
Itasca [21-CE-1],Mammals,47.11666666666667,-95.11666666666666,0,0,0,0,0,0,0,0,0,0,0,0,0,0,0,0,0,0,0,0,0,0,
Mummy Cave,Mammals,44.45,-109.75,0,0,0,0,0,0,0,0,0,0,0,0,2.0,0,0,0,0,0,0,0,0,0,
Lamar,Mammals,44.866666666666674,-110.25,0,0,0,0,0,0,0,0,0,0,0,0,0,0,0,0,0,0,0,0,1.0,2.0,
Back Creek Cave #2,Mammals,38.06666666666666,-79.89166666666668,0,0,0,0,0,0,0,0,0,0,0,0,0,0,0,0,0,0,0,0,0,0,
Frankstown Cave,Mammals,40.36666666666667,-78.25,0,0,0,0,0,0,0,0,0,0,0,0,0,0,0,0,0,0,0,0,0,0,
Riverhaven #2,Mammals,43.0,-79.0,0,0,0,0,0,0,0,0,0,0,0,0,0,0,0,0,0,0,0,1.0,0,0,
Charlie Lake Cave [HbRf39],Mammals,56.276388888888896,-120.9375,0,0,0,0,0,0,0,0,0,0,0,0,0,0,0,0,0,0,0,0,0,0,
LA 12066,Mammals,36.36666666666667,-106.75,0,0,0,0,0,0,0,0,0,0,0,0,0,0,0,0,0,0,0,0,0,0,
Old Woman [42SV7],Mammals,38.75,-111.36666666666666,0,0,0,0,0,0,0,0,0,0,0,0,0,0,0,0,0,0,0,0,0,0,
Cascadia Cave [35LIN11],Mammals,44.36666666666667,-122.36666666666666,0,0,0,0,0,0,0,0,0,0,0,0,0,0,2.0,0,0,0,0,0,0,0,
Klamath Shoal Midden [Salt Cave Locality Site 7] [35KL21],Mammals,42.0,-122.11666666666666,0,0,0,0,0,0,0,0,0,0,0,0,0,0,0,0,0,0,0,0,0,0,
Crankshaft Cave,Mammals,38.36666666666667,-90.5,0,0,0,0,0,0,0,0,0,0,4.0,0,0,0,0,0,0,0,0,0,0,0,
Mission of St. Ignace,Mammals,45.75,-84.75,0,0,0,0,0,0,0,0,0,0,0,0,0,0,0,0,0,0,0,0,0,10.0,
White Oaks Mound [21IC1],Mammals,47.25,-93.75,0,0,0,0,0,0,0,0,0,0,0,0,0,0,0,0,0,0,0,0,0,0,
Garoga [Las 7],Mammals,43.016666666666666,-74.53333333333332,0,0,0,0,0,0,0,0,0,0,0,0,0,0,0,0,0,0,0,0,0,0,
Nahrwold No.1 [Shr 51-4],Mammals,42.575,-74.34361111111112,0,0,0,0,0,0,0,0,0,0,0,0,0,0,0,0,0,0,0,0,0,0,
New Trout Cave,Mammals,38.602777777777774,-79.36888888888889,0,0,0,0,0,0,0,0,0,0,0,0,0,0,0,0,0,0,0,0,0,0,
Hiscock Site,Mammals,43.0,-78.0,0,0,0,0,0,0,0,0,0,0,0,0,0,0,0,0,0,0,0,0,0,0,
Pike Bay Mound [21SL1],Mammals,47.75,-92.36666666666666,0,0,0,0,0,0,0,0,0,0,0,0,0,0,0,0,0,0,0,0,0,0,
McKinstry [21KC2],Mammals,48.5,-93.5,0,0,0,0,0,0,0,0,0,0,0,0,0,0,0,0,0,0,0,0,0,0,
Woodruff Rockshelter [6LF126],Mammals,41.61666666666666,-73.25,0,0,0,0,0,0,0,0,0,0,0,0,0,0,0,0,0,0,0,0,0,0,
Herculaneum Fissure,Mammals,38.27361111111111,-90.38388888888889,0,0,0,0,0,0,0,0,0,0,0,0,0,0,0,0,0,0,0,0,0,0,
Jacobs Cave,Mammals,38.25,-92.86666666666666,0,0,0,0,0,0,0,0,0,0,0,0,0,0,0,0,0,0,0,0,0,2.0,
Porcupine Cave,Mammals,41.0,-111.0,0,0,0,0,0,0,0,0,0,0,0,0,0,0,0,0,0,0,0,0,0,0,
Kijik Village [XLC-00001],Mammals,60.28205,-154.21221500000001,0,0,0,0,0,0,0,0,0,0,0,0,0,0,0,0,0,0,0,0,0,0,
Agiagruat [NOA-00217],Mammals,67.533095,-164.03434,0,0,0,0,0,0,0,0,0,0,0,0,0,0,0,0,0,0,0,0,0,0,
Bear Flat  Peace River  NE British Columbia,Mammals,56.2808333333333,-121.2275,0,0,0,0,0,0,0,0,0,0,0,0,0,0,0,0,0,0,0,0,0,0,
Samwel Cave,Mammals,40.9171,-122.2318,0,0,0,0,0,0,0,0,0,0,0,0,0,0,0,0,0,0,0,0,0,0,
