Site,Type,Latitude,Longitude,22000-21000,21000-20000,20000-19000,19000-18000,18000-17000,17000-16000,16000-15000,15000-14000,14000-13000,13000-12000,12000-11000,11000-10000,10000-9000,9000-8000,8000-7000,7000-6000,6000-5000,5000-4000,4000-3000,3000-2000,2000-1000,1000-present
Canyon City Club Cave [A251],Mammals,35.0,-101.86666666666666,0,0,0,0,0,0,0,0,0,0,0,0,0,0,0,0,0,0,0,0,0,46.0,
Williams Cave,Mammals,31.866666666666667,-104.75,0,0,0,0,0,0,0,0,0,0,0,0,0,0,0,0,0,0,0,0,0,0,
Lower Sloth Cave,Mammals,31.866666666666667,-104.86666666666666,0,0,0,0,0,0,0,0,0,0,0,0,0,0,0,0,0,0,0,0,0,0,
Schulze Cave,Mammals,30.25,-99.86666666666666,0,0,0,0,0,0,0,0,0,0,0,0,0,0,0,0,0,0,0,0,0,0,
Baker Cave [41VV213],Mammals,29.983333333333334,-101.1,0,0,0,0,0,0,0,0,0,0,0,0,0,0,0,0,0,0,0,0,0,0,
Upper Sloth Cave [TTu-Tex-2],Mammals,31.866666666666667,-104.75,0,0,0,0,0,0,0,0,0,0,0,0,0,0,0,0,0,0,0,0,0,0,
Hinds Cave [41VV456],Mammals,29.89138888888889,-101.44,0,0,0,0,0,0,0,0,0,0,0,0,12.0,0,0,0,0,0,0,0,0,0,
Pratt Cave [TMM-41172],Mammals,31.866666666666667,-104.75,0,0,0,0,0,0,0,0,0,0,0,0,0,0,0,0,0,0,0,0,0,0,
Wybark [34MS76],Mammals,35.75,-95.25,0,0,0,0,0,0,0,0,0,0,0,0,0,0,0,0,0,0,0,0,0,0,
Duckfoot [5MT3668],Mammals,37.5,-108.75,0,0,0,0,0,0,0,0,0,0,0,0,0,0,0,0,0,0,0,0,0,0,
Fowlkes Cave,Mammals,31.0,-104.11666666666666,0,0,0,0,0,0,0,0,0,0,0,0,0,0,0,0,0,0,0,0,0,0,
Centipede Cave [41VV190],Mammals,29.75,-101.45,0,0,0,0,0,0,0,0,0,0,0,0,0,0,0,0,0,0,0,0,0,0,
Caldwell Ranch Site No. 1,Mammals,31.616666666666667,-104.11666666666666,0,0,0,0,0,0,0,0,0,0,0,0,0,0,0,0,0,0,0,0,0,0,
Sandoval Section LA-4169,Mammals,37.016666666666666,-107.36666666666666,0,0,0,0,0,0,0,0,0,0,0,0,0,0,0,0,0,0,0,0,5.0,0,
Wolcott Peak Midden 2 [UALP7235],Mammals,32.45,-111.46666666666668,0,0,0,0,0,0,0,0,0,0,0,0,0,0,0,0,0,0,0,0,0,0,
Alamo Canyon Midden 3 [UALP8141],Mammals,32.0,-112.75,0,0,0,0,0,0,0,0,0,0,0,0,0,0,0,0,0,0,0,0,0,0,
Ventana Cave [AZ Z:12:5],Mammals,32.333333333333336,-112.23333333333332,0,0,0,0,0,0,0,0,0,0,0,0,0,0,0,0,0,0,0,0,0,0,
Deadman Cave,Mammals,32.36666666666667,-110.75,0,0,0,0,0,0,0,0,0,0,0,0,0,0,0,0,0,0,0,0,0,0,
Dry Cave,Mammals,32.37361111111111,-104.48194444444442,0,0,0,0,0,0,0,0,0,0,0,0,0,0,0,0,0,0,0,0,0,0,
Guadalupe Ruin,Mammals,35.5,-107.11666666666666,0,0,0,0,0,0,0,0,0,0,0,0,0,0,0,0,0,0,0,0,0,0,
Howell's Ridge Cave [UTEP32],Mammals,31.916666666666668,-108.5,0,0,0,0,0,0,0,0,0,0,0,0,0,0,0,0,0,0,0,0,0,0,
Isleta Cave No. 1 [UTEP42],Mammals,34.866666666666674,-106.75,0,0,0,0,0,0,0,0,0,0,0,0,0,0,0,0,0,0,0,0,0,0,
Isleta Cave No. 2 [UTEP46],Mammals,34.866666666666674,-106.75,0,0,0,0,0,0,0,0,0,0,0,0,0,0,0,0,0,0,0,0,0,0,
U-Bar Cave [LA5689],Mammals,31.4745,-108.4337,0,0,0,0,0,0,0,0,0,0,0,0,0,0,0,0,0,0,0,0,0,0,
Black Mesa  D:10:1,Mammals,36.25,-110.61666666666667,0,0,0,0,0,0,0,0,0,0,0,0,0,0,0,0,0,0,0,0,0,0,
Black Mesa  D:9:1,Mammals,36.25,-110.75,0,0,0,0,0,0,0,0,0,0,0,0,0,0,0,0,0,0,0,0,0,0,
Whiskey Creek Site LA 4989,Mammals,33.866666666666674,-108.61666666666667,0,0,0,0,0,0,0,0,0,0,0,0,0,0,0,0,0,0,0,0,0,0,
Black Mesa D:7:0216,Mammals,36.5,-110.25,0,0,0,0,0,0,0,0,0,0,0,0,0,0,0,0,0,0,0,0,0,0,
Black Mesa D:11:2030,Mammals,36.36666666666667,-110.36666666666666,0,0,0,0,0,0,0,0,0,0,0,0,0,0,0,0,0,0,0,0,0,0,
Black Mesa D:7:0704,Mammals,36.5,-110.36666666666666,0,0,0,0,0,0,0,0,0,0,0,0,0,0,0,0,0,0,0,0,0,0,
Black Mesa D:7:0725,Mammals,36.5,-110.36666666666666,0,0,0,0,0,0,0,0,0,0,0,0,0,0,0,0,0,0,0,0,0,0,
Black Mesa D:11:0275,Mammals,36.36666666666667,-110.25,0,0,0,0,0,0,0,0,0,0,0,0,0,0,0,0,0,0,0,0,0,0,
Grasshopper Pueblo [P:14:1],Mammals,34.08333333333333,-110.66666666666669,0,0,0,0,0,0,0,0,0,0,0,0,0,0,0,0,0,0,0,0,0,0,
Conkling Cavern [Beasley Cave] [LACM 10091],Mammals,32.25,-106.5,0,0,0,0,0,0,0,0,0,0,0,0,0,0,0,0,0,0,0,0,0,0,
Dark Canyon Cave,Mammals,32.25,-104.5,0,0,0,0,0,0,0,0,0,0,0,0,0,0,0,0,0,0,0,0,0,0,
Kokoweef Cave [SBC1.11.13],Mammals,35.416666666666664,-115.5,0,0,0,0,0,0,0,0,0,0,0,0,0,0,0,0,0,0,0,0,0,0,
Potosi Mountain Midden 2,Mammals,36.0,-115.38333333333334,0,0,0,0,0,0,0,0,0,0,0,0,0,0,0,0,0,0,0,0,0,0,
Muskox Cave,Mammals,32.11666666666667,-104.5,0,0,0,0,0,0,0,0,0,0,0,0,0,0,0,0,0,0,0,0,0,0,
Long Canyon Saddle Midden,Mammals,36.483333333333334,-115.25,0,0,0,0,0,0,0,0,0,0,0,0,0,0,0,0,0,0,0,0,0,0,
