Site,Type,Latitude,Longitude,22000-21000,21000-20000,20000-19000,19000-18000,18000-17000,17000-16000,16000-15000,15000-14000,14000-13000,13000-12000,12000-11000,11000-10000,10000-9000,9000-8000,8000-7000,7000-6000,6000-5000,5000-4000,4000-3000,3000-2000,2000-1000,1000-present
Chimney Rock Animal Trap,Mammals,40.866666666666674,-105.75,0,0,0,0,0,0,0,0,0,0,0,0,0,0,0,0,0,0,0,0,0,0,
Jones-Miller,Mammals,39.866666666666674,-102.11666666666666,0,0,0,0,0,0,0,0,0,0,0,0,0,0,0,0,0,0,0,0,0,0,
Selby,Mammals,39.866666666666674,-102.25,0,0,0,0,0,0,0,0,0,0,0,0,0,0,0,0,0,0,0,0,0,0,
Spring Canyon [A-41],Mammals,35.71666666666667,-101.55,0,0,0,0,0,0,0,0,0,0,0,0,0,0,0,0,0,0,0,0,0,2.0,
Roper [41HC6(A62)],Mammals,35.7,-101.56666666666668,0,0,0,0,0,0,0,0,0,0,0,0,0,0,0,0,0,0,0,0,0,2.0,
Alibates,Mammals,35.56666666666667,-101.66666666666669,0,0,0,0,0,0,0,0,0,0,0,0,0,0,0,0,0,0,0,0,0,0,
Canyon City Club Cave [A251],Mammals,35.0,-101.86666666666666,0,0,0,0,0,0,0,0,0,0,0,0,0,0,0,0,0,0,0,0,0,0,
Deadman's Shelter [41SW23],Mammals,34.5,-101.36666666666666,0,0,0,0,0,0,0,0,0,0,0,0,0,0,0,0,0,0,0,0,34.0,0,
Lubbock Lake [41LU1],Mammals,33.62041666666667,-101.89208333333336,0,0,0,0,0,0,0,0,0,0,0,0,0,0,0,0,0,0,0,0,0,0,
Dutton,Mammals,39.61666666666666,-102.25,0,0,0,0,0,0,0,0,0,0,0,0,0,0,0,0,0,0,0,0,0,0,
Jaguar Cave [Cave No. 2],Mammals,44.28138888888888,-112.91527777777776,0,0,0,0,0,0,0,0,0,0,0,0,0,0,0,0,0,0,0,0,0,0,
Phipps [13CK21],Mammals,42.80555555555554,-95.55833333333331,0,0,0,0,0,0,0,0,0,0,0,0,0,0,0,0,0,0,0,0,40.0,52.0,
Potter Creek Cave [5357 1055],Mammals,40.78388888888889,-122.28083333333332,0,0,0,0,0,0,0,0,0,0,0,0,0,0,0,0,0,0,0,0,0,0,
Samwell Cave,Mammals,40.916911,-122.23787,0,0,0,0,0,0,0,0,0,0,0,0,0,0,0,0,0,0,0,0,0,0,
Darty Cave,Mammals,36.69444444444444,-82.4713888888889,0,0,0,0,0,0,0,0,0,0,0,0,0,0,0,0,0,0,0,0,0,0,
Deer Creek Cave [EL-25],Mammals,41.75,-115.36666666666666,0,0,0,0,0,0,0,0,0,0,0,0,0,0,0,0,0,0,0,0,0,0,
Bonfire Shelter [41VV218],Mammals,29.816666666666663,-101.55,0,0,0,0,0,0,0,0,0,0,0,0,0,0,0,0,0,0,0,0,0,0,
Carpenter Farm,Mammals,31.866666666666667,-96.0,0,0,0,0,0,0,0,0,0,0,0,0,0,0,0,0,0,0,0,0,0,0,
Berclair Terrace Site 1 [TMM-31019],Mammals,28.5,-97.5,0,0,0,0,0,0,0,0,0,0,0,0,0,0,0,0,0,0,0,0,0,0,
Footbridge [41CM2],Mammals,29.866666666666667,-98.11666666666666,0,0,0,0,0,0,0,0,0,0,0,0,0,0,0,0,0,0,0,0,0,0,
Oblate [41CM1],Mammals,29.866666666666667,-98.25,0,0,0,0,0,0,0,0,0,0,0,0,0,0,0,0,0,0,0,0,0,0,
Lower Sloth Cave,Mammals,31.866666666666667,-104.86666666666666,0,0,0,0,0,0,0,0,0,0,0,0,0,0,0,0,0,0,0,0,0,0,
Miller's Cave,Mammals,30.586666666666662,-98.63666666666668,0,0,0,0,0,0,0,0,0,0,0,0,0,0,0,0,0,0,0,0,0,0,
Baker Cave [41VV213],Mammals,29.983333333333334,-101.1,0,0,0,0,0,0,0,0,0,0,0,0,0,0,0,0,0,0,0,0,0,12.0,
Hinds Cave [41VV456],Mammals,29.89138888888889,-101.44,0,0,0,0,0,0,0,0,0,0,0,0,2.0,0,0,0,0,0,0,0,0,0,
Avenue,Mammals,30.25,-97.75,0,0,0,0,1.0,0,0,0,0,1.0,0,0,0,0,0,0,0,0,0,0,0,0,
Pratt Cave [TMM-41172],Mammals,31.866666666666667,-104.75,0,0,0,0,0,0,0,0,0,0,0,0,0,0,0,0,0,0,0,0,0,0,
Hueco Tanks State Hist. Pk. [41EP2],Mammals,31.866666666666667,-106.0,0,0,0,0,0,0,0,0,0,0,0,0,0,0,0,0,0,0,0,0,0,0,
Eagle Shelter,Mammals,44.866666666666674,-108.11666666666666,0,0,0,0,0,0,0,0,0,0,0,0,0,0,0,0,0,0,0,0,0,0,
Prospects Shelter [48BH305],Mammals,44.866666666666674,-108.11666666666666,0,0,0,0,0,0,0,0,0,0,0,0,0,0,0,0,0,0,0,0,0,0,
Hell Gap [48PL305],Mammals,42.40833333333334,-104.63555555555554,0,0,0,0,0,0,0,0,0,0,0,0,0,0,0,0,0,0,0,0,0,0,
Big Goose Creek [48SH313],Mammals,44.73333333333333,-107.15,0,0,0,0,0,0,0,0,0,0,0,0,0,0,0,0,0,0,0,0,0,0,
Wedding of the Waters [48HO301],Mammals,43.5,-108.11666666666666,0,0,0,0,0,0,0,0,0,0,0,0,0,0,0,0,0,0,0,0,0,0,
Hanson [48BH329],Mammals,44.61666666666666,-107.75,0,0,0,0,0,0,0,0,0,0,0,0,0,0,0,0,0,0,0,0,0,0,
48LN74,Mammals,41.75,-110.0,0,0,0,0,0,0,0,0,0,0,0,0,0,0,0,0,0,0,0,0,0,0,
McCleary [48NA1152],Mammals,42.866666666666674,-106.75,0,0,0,0,0,0,0,0,0,0,0,0,0,0,0,0,0,0,0,0,0,0,
Bischoff,Mammals,44.866666666666674,-108.0,0,0,0,0,0,0,0,0,0,0,0,0,0,0,0,0,0,0,0,0,0,0,
Wortham Shelter [48BH730],Mammals,44.991666666666674,-108.23333333333332,0,0,0,0,0,0,0,0,0,0,0,0,0,0,0,0,0,0,0,0,0,0,
McKean [48CK7],Mammals,44.25,-104.75,0,0,0,0,0,0,0,0,0,0,0,0,0,0,0,0,0,0,0,0,0,0,
Deer Creek [48BH18],Mammals,44.866666666666674,-108.0,0,0,0,0,0,0,0,0,0,0,0,0,0,0,0,0,0,0,0,0,0,0,
Rice Cave [48WA363],Mammals,44.0,-107.11666666666666,0,0,0,0,0,0,0,0,0,0,0,0,0,0,0,0,0,0,0,0,0,0,
48AB301,Mammals,42.25,-106.0,0,0,0,0,0,0,0,0,0,0,0,0,0,0,0,0,0,0,0,0,0,0,
48CA403,Mammals,43.61666666666666,-105.25,0,0,0,0,0,0,0,0,0,0,0,0,0,0,0,0,0,0,0,0,0,0,
Birdshead Cave [48FR54],Mammals,43.36666666666667,-108.25,0,0,0,0,0,0,0,0,0,0,0,0,0,0,0,0,0,0,0,0,0,0,
Beehive [48BH346],Mammals,44.25,-107.5,0,0,0,0,0,0,0,0,0,0,0,0,0,0,0,0,0,0,0,0,0,0,
Ross [34CD69],Mammals,35.36666666666667,-98.25,0,0,0,0,0,0,0,0,0,0,0,0,0,0,0,0,0,0,0,0,0,0,
Heerwald [34CU27],Mammals,35.5,-99.0,0,0,0,0,0,0,0,0,0,0,0,0,0,0,0,0,0,0,0,0,0,0,
James [34Br-11],Mammals,34.0,-96.5,0,0,0,0,0,0,0,0,0,0,0,0,0,0,0,0,0,0,0,0,0,0,
Duncan-Wilson Bluff Shelter [Cd-11],Mammals,35.25,-98.25,0,0,0,0,0,0,0,0,0,0,0,0,0,0,0,0,0,0,0,0,0,0,
Lawrence [34NW-6],Mammals,36.61666666666666,-95.5,0,0,0,0,0,0,0,0,0,0,0,0,0,0,0,0,0,0,0,0,0,0,
Sparks [34Gd-119],Mammals,35.0,-97.75,0,0,0,0,0,0,0,0,0,0,0,0,0,0,0,0,0,0,0,0,0,0,
Cookson [34CK12],Mammals,35.61666666666666,-94.86666666666666,0,0,0,0,0,0,0,0,0,0,0,0,0,0,0,0,0,0,0,0,0,0,
Zimms [34RM72],Mammals,35.75,-99.5,0,0,0,0,0,0,0,0,0,0,0,0,0,0,0,0,0,0,0,0,0,0,
Delaware Canyon 34CD258C,Mammals,35.25,-98.36666666666666,0,0,0,0,0,0,0,0,0,0,0,0,0,0,0,0,0,0,0,0,0,0,
Bryson-Paddock [34KA5],Mammals,36.75,-97.0,0,0,0,0,0,0,0,0,0,0,0,0,0,0,0,0,0,0,0,0,0,0,
Gnagey [36SO55],Mammals,40.0,-78.86666666666666,0,0,0,0,0,0,0,0,0,0,0,0,0,0,0,0,0,0,0,0,0,0,
Thirty Mile Mesa,Mammals,46.11666666666667,-108.36666666666666,0,0,0,0,0,0,0,0,0,0,0,0,0,0,0,0,0,0,0,0,0,0,
Coffey [14PO1],Mammals,39.73333333333333,-96.56666666666668,0,0,0,0,0,0,0,0,0,0,0,0,0,0,0,0,0,0,0,0,0,0,
Trowbridge [14WY1],Mammals,39.13333333333333,-94.71666666666668,0,0,0,0,0,0,0,0,0,0,0,0,0,0,0,0,0,0,0,0,26.0,0,
Porcupine Cave,Mammals,38.729166666666664,-105.8613888888889,0,0,0,0,0,0,0,0,0,0,0,0,0,0,0,0,0,0,0,0,0,0,
Michaud Site B [5AH3],Mammals,39.5,-104.25,0,0,0,0,0,0,0,0,0,0,0,0,0,0,0,0,0,0,0,0,0,0,
Sand Canyon Pueblo [5MT765],Mammals,37.5,-108.75,0,0,0,0,0,0,0,0,0,0,0,0,0,0,0,0,0,0,0,0,0,0,
Hoffer [24CH669],Mammals,47.75,-109.86666666666666,0,0,0,0,0,0,0,0,0,0,0,0,0,0,0,0,0,1.0,0,0,0,1.0,
Gillette [39ST23],Mammals,44.61666666666666,-100.61666666666667,0,0,0,0,0,0,0,0,0,0,0,0,0,0,0,0,0,0,0,0,0,0,
Hosterman [39PO7],Mammals,45.0,-100.25,0,0,0,0,0,0,0,0,0,0,0,0,0,0,0,0,0,0,0,0,0,6.0,
McKensey Village [39AR201],Mammals,44.75,-100.5,0,0,0,0,0,0,0,0,0,0,0,0,0,0,0,0,0,0,0,0,0,0,
Mitchell [39DV2],Mammals,43.71666666666667,-98.03333333333333,0,0,0,0,0,0,0,0,0,0,0,0,0,0,0,0,0,0,0,0,1.0,1.0,
Indian School [39HU10],Mammals,44.25,-100.11666666666666,0,0,0,0,0,0,0,0,0,0,0,0,0,0,0,0,0,0,0,0,0,4.0,
Lower Grand [Davis] [39CO14],Mammals,45.575,-100.48333333333336,0,0,0,0,0,0,0,0,0,0,0,0,0,0,0,0,0,0,0,0,0,0,
Travis I [39CO213],Mammals,45.57722222222223,-100.49666666666668,0,0,0,0,0,0,0,0,0,0,0,0,0,0,0,0,0,0,0,0,0,1.0,
Jake White Bull [39CO6],Mammals,45.75,-100.36666666666666,0,0,0,0,0,0,0,0,0,0,0,0,0,0,0,0,0,0,0,0,0,1.0,
Spotted Bear [39HU26],Mammals,44.45833333333334,-100.45972222222224,0,0,0,0,0,0,0,0,0,0,0,0,0,0,0,0,0,0,0,0,0,0,
Four Bear [39DW2],Mammals,45.15,-100.25,0,0,0,0,0,0,0,0,0,0,0,0,0,0,0,0,0,0,0,0,0,0,
Arp [39BR101],Mammals,43.583333333333336,-99.33333333333334,0,0,0,0,0,0,0,0,0,0,0,0,0,0,0,0,0,0,0,0,0,0,
Anton Rygh [39CA4],Mammals,45.65,-100.39166666666664,0,0,0,0,0,0,0,0,0,0,0,0,0,0,0,0,0,0,0,0,0,5.0,
Larson [39WW2],Mammals,45.51944444444446,-100.4125,0,0,0,0,0,0,0,0,0,0,0,0,0,0,0,0,0,0,0,0,0,12.0,
Oakwood Lakes [39BK7],Mammals,44.36666666666667,-96.86666666666666,0,0,0,0,0,0,0,0,0,0,0,0,0,0,0,0,0,0,0,1.0,1.0,0,
Hitchell [39CH45],Mammals,43.29861111111112,-99.02222222222225,0,0,0,0,0,0,0,0,0,0,0,0,0,0,0,0,0,0,0,0,2.0,2.0,
Dinehart [39LM33],Mammals,43.85472222222222,-99.3322222222222,0,0,0,0,0,0,0,0,0,0,0,0,0,0,0,0,0,0,0,0,0,1.0,
Crow Creek [39BF11],Mammals,43.99722222222223,-99.33166666666669,0,0,0,0,0,0,0,0,0,0,0,0,0,0,0,0,0,0,0,0,0,0,
Talking Crow [39Bf3],Mammals,44.0275,-99.36972222222224,0,0,0,0,0,0,0,0,0,0,0,0,0,0,0,0,0,0,0,0,0,0,
Black Partizan [39LM218],Mammals,44.0,-99.5,0,0,0,0,0,0,0,0,0,0,0,0,0,0,0,0,0,0,0,0,0,0,
Jandreau [39LM225],Mammals,44.09166666666667,-99.66527777777776,0,0,0,0,0,0,0,0,0,0,0,0,0,0,0,0,0,0,0,0,3.0,3.0,
Sommers [39ST56],Mammals,44.25777777777777,-99.94666666666666,0,0,0,0,0,0,0,0,0,0,0,0,0,0,0,0,0,0,0,0,0,0,
Ft. George V [39ST17],Mammals,44.280833333333334,-100.02805555555555,0,0,0,0,0,0,0,0,0,0,0,0,0,0,0,0,0,0,0,0,0,3.0,
Ayala [79D5-1],Mammals,26.116666666666667,-98.11666666666666,0,0,0,0,0,0,0,0,0,0,0,0,0,0,0,0,0,0,0,0,0,0,
Thomas Riggs [39HU1],Mammals,44.48527777777777,-100.56861111111112,0,0,0,0,0,0,0,0,0,0,0,0,0,0,0,0,0,0,0,0,0,0,
H. P. Thomas [39ST12],Mammals,44.68138888888888,-100.6316666666667,0,0,0,0,0,0,0,0,0,0,0,0,0,0,0,0,0,0,0,0,0,0,
Red Horse Hawk [39CO213],Mammals,45.57194444444444,-100.47805555555556,0,0,0,0,0,0,0,0,0,0,0,0,0,0,0,0,0,0,0,0,0,8.0,
Medicine Crow [39Bf2],Mammals,44.08055555555555,-99.51777777777781,0,0,0,0,0,0,0,0,0,0,0,0,0,0,0,0,0,0,0,0,0,8.0,
Jiggs Thompson [39LM208],Mammals,44.19027777777778,-99.59666666666664,0,0,0,0,0,0,0,0,0,0,0,0,0,0,0,0,0,0,0,0,0,3.0,
Walth Bay [39WW203],Mammals,45.4125,-100.275,0,0,0,0,0,0,0,0,0,0,0,0,0,0,0,0,0,0,0,0,0,0,
Royel Goodenow [25LP8],Mammals,41.866666666666674,-99.36666666666666,0,0,0,0,0,0,0,0,0,0,0,0,0,0,0,0,0,0,0,0,0,0,
Mowry Bluff [25FT35],Mammals,40.37722222222222,-100.22,0,0,0,0,0,0,0,0,0,0,0,0,0,0,0,0,0,0,0,0,0,2.0,
Schmidt [25HW301],Mammals,41.25,-98.5,0,0,0,0,0,0,0,0,0,0,0,0,0,0,0,0,0,0,0,0,0,6.0,
Shipman [25WT7],Mammals,40.11666666666667,-98.36666666666666,0,0,0,0,0,0,0,0,0,0,0,0,0,0,0,0,0,0,0,0,0,3.0,
Bill Packer [25SM9],Mammals,41.383333333333326,-98.75611111111111,0,0,0,0,0,0,0,0,0,0,0,0,0,0,0,0,0,0,0,0,0,6.0,
Lime Creek [25FT41],Mammals,40.36666666666667,-100.11666666666666,0,0,0,0,0,0,0,0,0,0,0,0,0,0,0,0,0,0,0,0,0,0,
Walker-Gilmore [25CC28],Mammals,40.9,-95.83333333333333,0,0,0,0,0,0,0,0,0,0,0,0,0,0,0,0,0,0,0,0,7.0,7.0,
Smith Falls Local Fauna,Mammals,42.75,-100.11666666666666,0,0,0,0,0,0,0,0,0,0,1.0,0,0,0,0,0,0,0,0,0,0,0,
Litchfield Local Fauna [SM-102],Mammals,41.11666666666667,-99.11666666666666,0,0,0,0,0,0,0,0,0,0,1.0,0,0,0,0,0,0,0,0,0,0,0,
Brown [25NC8],Mammals,41.37222222222221,-98.0077777777778,0,0,0,0,0,0,0,0,0,0,0,0,0,0,0,0,0,0,0,0,0,3.0,
Cunningham [25NC10],Mammals,41.33888888888889,-98.0291666666667,0,0,0,0,0,0,0,0,0,0,0,0,0,0,0,0,0,0,0,0,0,7.0,
Owens [25FT3],Mammals,40.48611111111111,-100.315,0,0,0,0,0,0,0,0,0,0,0,0,0,0,0,0,0,0,0,0,0,3.0,
25FT39,Mammals,40.41388888888889,-100.24444444444444,0,0,0,0,0,0,0,0,0,0,0,0,0,0,0,0,0,0,0,0,0,1.0,
Clarence Allen [25FT30],Mammals,40.41388888888889,-100.21944444444443,0,0,0,0,0,0,0,0,0,0,0,0,0,0,0,0,0,0,0,0,0,1.0,
25FT17,Mammals,40.37777777777778,-100.2125,0,0,0,0,0,0,0,0,0,0,0,0,0,0,0,0,0,0,0,0,0,3.0,
Aiken [25FT16],Mammals,40.37777777777778,-100.2125,0,0,0,0,0,0,0,0,0,0,0,0,0,0,0,0,0,0,0,0,0,2.0,
Compton [25FT13],Mammals,40.37777777777778,-100.2125,0,0,0,0,0,0,0,0,0,0,0,0,0,0,0,0,0,0,0,0,0,3.0,
25FT70,Mammals,40.383333333333326,-100.23055555555555,0,0,0,0,0,0,0,0,0,0,0,0,0,0,0,0,0,0,0,0,3.0,3.0,
Logan Creek [25BT3],Mammals,41.81666666666667,-96.46666666666667,0,0,0,0,0,0,0,0,0,0,0,0,0,1.0,0,2.0,0,0,0,0,0,0,
Schuyler [25CX1],Mammals,41.36666666666667,-97.0,0,0,0,0,0,0,0,0,0,0,0,0,0,0,0,0,0,0,0,0,0,6.0,
White Buffalo Robe [32ME7],Mammals,47.25,-101.36666666666666,0,0,0,0,0,0,0,0,0,0,0,0,0,0,0,0,0,0,0,0,0,0,
Upper Sanger [32OL12],Mammals,47.11666666666667,-101.11666666666666,0,0,0,0,0,0,0,0,0,0,0,0,0,0,0,0,0,0,0,0,0,0,
Cross Ranch [32OL14],Mammals,47.1963888888889,-100.99638888888887,0,0,0,0,0,0,0,0,0,0,0,0,0,0,0,0,0,0,0,0,0,3.0,
Mondrian Tree [32MZ58],Mammals,47.95,-103.9,0,0,0,0,0,0,0,0,0,0,0,0,0,0,0,0,0,1.0,4.0,4.0,0,2.0,
Lower Hidatsa [32ME10],Mammals,47.25,-101.36666666666666,0,0,0,0,0,0,0,0,0,0,0,0,0,0,0,0,0,0,0,0,0,7.0,
Poly [32ME407],Mammals,47.25,-101.36666666666666,0,0,0,0,0,0,0,0,0,0,0,0,0,0,0,0,0,0,0,0,0,1.0,
Youess [32ME415],Mammals,47.25,-101.36666666666666,0,0,0,0,0,0,0,0,0,0,0,0,0,0,0,0,0,0,0,0,0,1.0,
Forkorner [32ME413],Mammals,47.25,-101.36666666666666,0,0,0,0,0,0,0,0,0,0,0,0,0,0,0,0,0,0,0,0,0,1.0,
Sakakawea [32ME11],Mammals,47.25,-101.36666666666666,0,0,0,0,0,0,0,0,0,0,0,0,0,0,0,0,0,0,0,0,0,5.0,
Like-A-Fishhook [34ML2],Mammals,47.5,-101.75,0,0,0,0,0,0,0,0,0,0,0,0,0,0,0,0,0,0,0,0,0,0,
Ice Glider [32OL110],Mammals,47.25,-101.0,0,0,0,0,0,0,0,0,0,0,0,0,0,0,0,0,0,0,0,0,0,8.0,
Huff [32MO11],Mammals,46.61888888888888,-100.64166666666664,0,0,0,0,0,0,0,0,0,0,0,0,0,0,0,0,0,0,0,0,0,0,
South Cannonball [32SI19],Mammals,46.412222222222205,-100.59027777777776,0,0,0,0,0,0,0,0,0,0,0,0,0,0,0,0,0,0,0,0,0,6.0,
Ft. Union [32WI17],Mammals,48.0,-104.0,0,0,0,0,0,0,0,0,0,0,0,0,0,0,0,0,0,0,0,0,0,0,
Kipp's Post [32MN1],Mammals,48.0,-102.61666666666667,0,0,0,0,0,0,0,0,0,0,0,0,0,0,0,0,0,0,0,0,0,2.0,
Rock Village [32ME15],Mammals,47.5,-101.36666666666666,0,0,0,0,0,0,0,0,0,0,0,0,0,0,0,0,0,0,0,0,0,0,
Night Walker's Butte [32ML39],Mammals,47.5,-102.0,0,0,0,0,0,0,0,0,0,0,0,0,0,0,0,0,0,0,0,0,0,0,
Bendish [32MO2],Mammals,46.50416666666665,-100.58333333333331,0,0,0,0,0,0,0,0,0,0,0,0,0,0,0,0,0,0,0,0,0,1.0,
Hendrickson III [32SN403],Mammals,46.72472222222222,-98.56472222222224,0,0,0,0,0,0,0,0,0,0,0,0,0,0,0,0,0,0,0,0,0,1.0,
Pretty Point [32OL8],Mammals,47.158333333333346,-100.97027777777777,0,0,0,0,0,0,0,0,0,0,0,0,0,0,0,0,0,0,0,0,0,0,
Bagnell [32OL16],Mammals,47.248333333333335,-101.0061111111111,0,0,0,0,0,0,0,0,0,0,0,0,0,0,0,0,0,0,0,0,0,10.0,
Mandan Lake [32OL21],Mammals,47.25,-101.17555555555552,0,0,0,0,0,0,0,0,0,0,0,0,0,0,0,0,0,0,0,0,0,0,
Mahaha [32OL22],Mammals,47.23888888888889,-101.24166666666665,0,0,0,0,0,0,0,0,0,0,0,0,0,0,0,0,0,0,0,0,0,0,
Ft. Clark [32ME2],Mammals,47.25333333333333,-101.27416666666667,0,0,0,0,0,0,0,0,0,0,0,0,0,0,0,0,0,0,0,0,0,0,
Amahami [32ME8],Mammals,47.32444444444443,-101.37777777777777,0,0,0,0,0,0,0,0,0,0,0,0,0,0,0,0,0,0,0,0,0,2.0,
Johnson-3 [13ML130],Mammals,41.034444444444446,-95.75333333333336,0,0,0,0,0,0,0,0,0,0,0,0,0,0,0,0,0,0,0,0,0,0,
Johnson-1 [13ML128],Mammals,41.034444444444446,-95.75333333333336,0,0,0,0,0,0,0,0,0,0,0,0,0,0,0,0,0,0,0,0,0,0,
KuhL-1 [13ML126],Mammals,41.346944444444446,-95.78944444444443,0,0,0,0,0,0,0,0,0,0,0,0,0,0,0,0,0,0,0,0,0,0,
Gamble [13ML124],Mammals,41.0,-95.75,0,0,0,0,0,0,0,0,0,0,0,0,0,0,0,0,0,0,0,0,0,0,
Lincoln I [13ML119],Mammals,41.0,-95.75,0,0,0,0,0,0,0,0,0,0,0,0,0,0,0,0,0,0,0,0,2.0,0,
Christenson [13PK407],Mammals,41.61666666666666,-93.61666666666667,0,0,0,0,0,0,0,0,0,0,0,0,0,0,0,0,0,0,0,0,0,16.0,
Clarkson [13WA2],Mammals,41.5,-93.4583333333333,0,0,0,0,0,0,0,0,0,0,0,0,0,0,0,0,0,0,0,0,0,7.0,
Chan-ya-ta [13BV1],Mammals,42.85,-95.3,0,0,0,0,0,0,0,0,0,0,0,0,0,0,0,0,0,0,0,0,0,11.0,
Robert Battey [13JK21],Mammals,42.11666666666667,-90.78333333333333,0,0,0,0,0,0,0,0,0,0,0,0,0,0,0,0,0,0,0,0,7.0,0,
13WD405,Mammals,42.5,-96.36666666666666,0,0,0,0,0,0,0,0,0,0,0,0,0,0,0,0,0,0,0,0,0,0,
Tener [13WS108],Mammals,41.36666666666667,-91.5,0,0,0,0,0,0,0,0,0,0,0,0,0,0,0,0,0,0,0,1.0,1.0,0,
Coldwater Cave,Mammals,43.36666666666667,-91.86666666666666,0,0,0,0,0,0,0,0,0,0,0,0,0,0,0,0,0,0,0,0,0,0,
Broken Kettle West [13PM25],Mammals,42.63333333333334,-96.60000000000002,0,0,0,0,0,0,0,0,0,0,0,0,0,0,0,0,0,0,0,0,42.0,42.0,
Wittrock [13OB4],Mammals,42.96888888888888,-95.41805555555554,0,0,0,0,0,0,0,0,0,0,0,0,0,0,0,0,0,0,0,0,0,1.0,
Dixon [13WD8],Mammals,42.252222222222215,-95.75,0,0,0,0,0,0,0,0,0,0,0,0,0,0,0,0,0,0,0,0,0,12.0,
Fingerprint Cave,Mammals,32.866666666666674,-101.75,0,0,0,0,0,0,0,0,0,0,0,0,0,0,0,0,0,0,0,0,0,0,
Brewster [13CK15],Mammals,42.81666666666667,-95.60000000000002,0,0,0,0,0,0,0,0,0,0,0,0,0,0,0,0,0,0,0,0,40.0,40.0,
Thurman,Mammals,40.75,-95.75,0,0,0,0,0,0,0,0,0,0,0,0,0,0,0,0,0,0,0,0,0,1.0,
Kingston [13DM3],Mammals,40.866666666666674,-91.11666666666666,0,0,0,0,0,0,0,0,0,0,0,0,0,0,0,0,0,0,0,0,0,10.0,
Hadfield's Cave [13JN3],Mammals,42.233333333333334,-90.93333333333334,0,0,0,0,0,0,0,0,0,0,0,0,0,0,0,0,0,0,0,0,26.0,0,
Michel's Cave [13JK90],Mammals,42.11666666666667,-90.36666666666666,0,0,0,0,0,0,0,0,0,0,0,0,0,0,0,0,0,0,0,0,0,1.0,
Woodpecker Cave [13JH202],Mammals,41.61666666666666,-91.5,0,0,0,0,0,0,0,0,0,0,0,0,0,0,0,0,0,0,0,0,0,0,
McKinney [13LA1],Mammals,41.11666666666667,-91.11666666666666,0,0,0,0,0,0,0,0,0,0,0,0,0,0,0,0,0,0,0,0,0,0,
Lane Enclosure [13AM200],Mammals,43.36666666666667,-91.36666666666666,0,0,0,0,0,0,0,0,0,0,0,0,0,0,0,0,0,0,0,0,0,18.0,
Rainbow [13PM91],Mammals,42.61666666666666,-96.25,0,0,0,0,0,0,0,0,0,0,0,0,0,0,0,0,0,0,0,0,8.0,0,
Schmitt [13DB46],Mammals,42.36666666666667,-91.0,0,0,0,0,0,0,0,0,0,0,0,0,0,0,0,0,0,0,0,0,2.0,0,
Mud Creek,Mammals,41.61666666666666,-90.86666666666666,0,0,0,0,0,0,0,0,0,0,0,0,1.0,0,0,0,1.0,0,0,0,0,0,
Arthur [13DK27],Mammals,43.36666666666667,-95.0,0,0,0,0,0,0,0,0,0,0,0,0,0,0,0,0,0,0,0,0,1.0,0,
Milford [13DK1],Mammals,43.25,-95.11666666666666,0,0,0,0,0,0,0,0,0,0,0,0,0,0,0,0,0,0,0,0,0,7.0,
M.A.D [13Cf101],Mammals,42.0,-95.25,0,0,0,0,0,0,0,0,0,0,0,0,0,0,0,0,0,0,0,0,11.0,0,
Recon John Shelter,Mammals,38.5,-104.75,0,0,0,0,0,0,0,0,0,0,0,0,0,0,0,0,0,0,0,0,0,0,
Hulme [25HL28],Mammals,40.916666666666664,-98.68333333333332,0,0,0,0,0,0,0,0,0,0,0,0,0,0,0,0,0,0,0,0,0,0,
Jurgens [5WLl53],Mammals,40.36666666666667,-104.5,0,0,0,0,0,0,0,0,0,0,0,0,0,0,0,0,0,0,0,0,0,0,
Sun River [24CA74],Mammals,47.5,-111.36666666666666,0,0,0,0,0,0,0,0,0,0,0,0,0,0,0,0,0,0,0,0,0,0,
Holmes Terrace [24FR52],Mammals,47.61666666666666,-109.61666666666667,0,0,0,0,0,0,0,0,0,0,0,0,0,0,0,0,0,0,0,0,0,0,
Bootlegger Trail [24TL1237],Mammals,48.233333333333334,-111.31666666666666,0,0,0,0,0,0,0,0,0,0,0,0,0,0,0,0,0,0,0,0,0,0,
False Cougar Cave [24CB84],Mammals,45.11666666666667,-108.25,0,0,0,0,0,0,0,0,0,0,0,0,0,0,0,0,0,0,0,0,0,0,
Yarmony [5EA799],Mammals,39.866666666666674,-106.5,0,0,0,0,0,0,0,0,0,0,0,0,0,0,0,0,0,0,0,0,0,0,
Dutch Creek [5JF463],Mammals,39.5,-105.11666666666666,0,0,0,0,0,0,0,0,0,0,0,0,0,0,0,0,0,0,0,0,0,0,
5MT3,Mammals,37.5,-108.75,0,0,0,0,0,0,0,0,0,0,0,0,0,0,0,0,0,0,0,0,0,0,
Walton Creek [5RT11],Mammals,40.36666666666667,-106.75,0,0,0,0,0,0,0,0,0,0,0,0,0,0,0,0,0,0,0,0,0,0,
Blacktail Cave [24LC151],Mammals,47.08333333333333,-112.28333333333332,0,0,0,0,0,0,0,0,0,0,0,0,0,0,0,18.0,0,0,0,0,0,0,
Drake [24YL51],Mammals,45.75,-108.61666666666667,0,0,0,0,0,0,0,0,0,0,0,0,0,0,0,0,0,0,0,0,0,0,
Graeber Cave,Mammals,39.5,-105.11666666666666,0,0,0,0,0,0,0,0,0,0,0,0,0,0,0,0,0,0,0,0,0,0,
Merino [5LG122],Mammals,40.36666666666667,-103.25,0,0,0,0,0,0,0,0,0,0,0,0,0,0,0,0,0,0,0,0,0,0,
Swan Creek [39WW7],Mammals,45.25,-100.25,0,0,0,0,0,0,0,0,0,0,0,0,0,0,0,0,0,0,0,0,0,0,
No Heart Creek [39AR2],Mammals,44.866666666666674,-100.61666666666667,0,0,0,0,0,0,0,0,0,0,0,0,0,0,0,0,0,0,0,0,0,0,
Stricker [39LM1],Mammals,44.0,-99.5,0,0,0,0,0,0,0,0,0,0,0,0,0,0,0,0,0,0,0,0,0,0,
39BR201,Mammals,43.61666666666666,-99.36666666666666,0,0,0,0,0,0,0,0,0,0,0,0,0,0,0,0,0,0,0,0,0,0,
Robinson,Mammals,44.5,-100.5,0,0,0,0,0,0,0,0,0,0,0,0,0,0,0,0,0,0,0,0,0,0,
Edwards II [34BK44],Mammals,35.25,-99.61666666666667,0,0,0,0,0,0,0,0,0,0,0,0,0,0,0,0,0,0,0,0,14.0,14.0,
Goodman I [34CU1],Mammals,35.61666666666666,-99.25,0,0,0,0,0,0,0,0,0,0,0,0,0,0,0,0,0,0,0,0,0,2.0,
New Smith [34RM400],Mammals,35.75,-99.5,0,0,0,0,0,0,0,0,0,0,0,0,0,0,0,0,0,0,0,0,0,2.0,
Linville II [34RM492],Mammals,35.61666666666666,-99.36666666666666,0,0,0,0,0,0,0,0,0,0,0,0,0,0,0,0,0,0,0,0,0,0,
Mouse [34CU25],Mammals,35.61666666666666,-99.25,0,0,0,0,0,0,0,0,0,0,0,0,0,0,0,0,0,0,0,0,0,0,
Medford Ranch [41HC10],Mammals,35.61666666666666,-101.5,0,0,0,0,0,0,0,0,0,0,0,0,0,0,0,0,0,0,0,0,0,4.0,
Antelope Creek 24,Mammals,35.61666666666666,-101.5,0,0,0,0,0,0,0,0,0,0,0,0,0,0,0,0,0,0,0,0,0,16.0,
Antelope Creek 22A,Mammals,35.61666666666666,-101.5,0,0,0,0,0,0,0,0,0,0,0,0,0,0,0,0,0,0,0,0,0,4.0,
Antelope Creek 22,Mammals,35.61666666666666,-101.5,0,0,0,0,0,0,0,0,0,0,0,0,0,0,0,0,0,0,0,0,0,0,
Long House,Mammals,37.18694444444445,-108.5025,0,0,0,0,0,0,0,0,0,0,0,0,0,0,0,0,0,0,0,0,0,0,
Big Juniper House [1595],Mammals,37.11666666666667,-108.5,0,0,0,0,0,0,0,0,0,0,0,0,0,0,0,0,0,0,0,0,0,0,
Biesterfeldt,Mammals,46.36666666666667,-97.36666666666666,0,0,0,0,0,0,0,0,0,0,0,0,0,0,0,0,0,0,0,0,0,0,
Pretty Head [39LM232],Mammals,44.0,-99.5,0,0,0,0,0,0,0,0,0,0,0,0,0,0,0,0,0,0,0,0,4.0,0,
Greenhaw [41HY29],Mammals,30.0,-97.75,0,0,0,0,0,0,0,0,0,0,0,0,0,0,0,0,0,0,0,0,0,0,
Swan Lake [41AS16],Mammals,28.0,-97.11666666666666,0,0,0,0,0,0,0,0,0,0,0,0,0,0,0,0,0,0,0,0,0,0,
Finis Frost [41SS20],Mammals,31.25,-98.86666666666666,0,0,0,0,0,0,0,0,0,0,0,0,0,0,0,0,0,0,0,0,0,0,
Devil's Hollow [41TV38],Mammals,30.366666666666664,-97.75,0,0,0,0,0,0,0,0,0,0,0,0,0,0,0,0,0,0,0,0,0,0,
Monk's Cave [41RK84],Mammals,31.866666666666667,-94.61666666666667,0,0,0,0,0,0,0,0,0,0,0,0,0,0,0,0,0,0,0,0,0,0,
Lewisville,Mammals,33.11666666666667,-97.0,0,0,0,0,0,0,0,0,0,0,0,0,0,0,0,0,0,0,0,0,0,0,
Budenbender [14PO4],Mammals,39.5,-96.58333333333333,0,0,0,0,0,0,0,0,0,0,0,0,0,0,0,0,0,0,0,0,0,0,
Witt [14GE600],Mammals,39.08333333333333,-96.58333333333333,0,0,0,0,0,0,0,0,0,0,0,0,0,0,0,0,0,0,0,0,0,10.0,
Smoky Hill Site 14RY401 [14RY401],Mammals,39.18333333333333,-96.60000000000002,0,0,0,0,0,0,0,0,0,0,0,0,0,0,0,0,0,0,0,0,0,10.0,
Belcher Mound [16CD13],Mammals,32.73333333333333,-93.8,0,0,0,0,0,0,0,0,0,0,0,0,0,0,0,0,0,0,0,0,0,0,
Bode's Draw [5LR1370],Mammals,40.4238888888889,-105.47666666666667,0,0,0,0,0,0,0,0,0,0,0,0,0,0,0,0,0,0,0,0,0,0,
Lake Creek [A48],Mammals,35.75,-101.5,0,0,0,0,0,0,0,0,0,0,0,0,0,0,0,0,0,0,0,0,0,0,
Brooks Cave,Mammals,31.616666666666667,-104.11666666666666,0,0,0,0,0,0,0,0,0,0,0,0,0,0,0,0,0,0,0,0,0,0,
Murrah Cave,Mammals,29.866666666666667,-101.36666666666666,0,0,0,0,0,0,0,0,0,0,0,0,0,0,0,0,0,0,0,0,0,0,
Deep,Mammals,30.366666666666664,-97.75,0,0,0,0,0,0,0,0,0,0,0,0,0,0,0,0,0,0,0,0,0,0,
Morris [CK-39],Mammals,35.75,-94.86666666666666,0,0,0,0,0,0,0,0,0,0,0,0,0,0,0,0,0,0,0,0,0,0,
Brown [34GD1],Mammals,35.25,-97.75,0,0,0,0,0,0,0,0,0,0,0,0,0,0,0,0,0,0,0,0,0,0,
Bellevue Mound,Mammals,32.25,-93.5,0,0,0,0,0,0,0,0,0,0,0,0,0,0,0,0,0,0,0,0,0,0,
Blum Rockshelter,Mammals,32.11666666666667,-97.36666666666666,0,0,0,0,0,0,0,0,0,0,0,0,0,0,0,0,0,0,0,0,0,0,
Serrano [LA-4408],Mammals,37.016666666666666,-107.36666666666666,0,0,0,0,0,0,0,0,0,0,0,0,0,0,0,0,0,0,0,0,0,0,
Sandoval Section LA-4169,Mammals,37.016666666666666,-107.36666666666666,0,0,0,0,0,0,0,0,0,0,0,0,0,0,0,0,0,0,0,0,0,0,
Beaver Creek Shelter [39CU779],Mammals,43.583333333333336,-103.5,0,0,0,0,0,0,0,0,0,0,0,0,0,0,0,0,0,0,0,0,0,0,
Mummy Cave,Mammals,44.45,-109.75,0,0,0,0,0,0,0,0,0,0,0,0,2.0,1.0,2.0,2.0,1.0,1.0,0,1.0,2.0,0,
Doyle [25RW28],Mammals,40.344722222222224,-100.47833333333334,0,0,0,0,0,0,0,0,0,0,0,0,0,0,0,0,0,0,0,0,1.0,0,
25FT54,Mammals,40.39333333333333,-100.74638888888887,0,0,0,0,0,0,0,0,0,0,0,0,0,0,0,0,0,0,0,0,0,5.0,
25RW22,Mammals,40.25,-100.61666666666667,0,0,0,0,0,0,0,0,0,0,0,0,0,0,0,0,0,0,0,0,0,1.0,
Spring Creek [25FT31],Mammals,40.35444444444444,-100.67,0,0,0,0,0,0,0,0,0,0,0,0,0,0,0,0,1.0,0,0,0,0,0,
Kincaid Shelter [41UV2],Mammals,29.366666666666664,-99.46666666666667,0,0,0,0,0,0,0,0,0,0,0,0,0,0,0,2.0,0,0,0,0,0,10.0,
Big Bone Lick Ken-1,Mammals,38.866666666666674,-84.61666666666667,0,0,0,0,0,0,0,0,0,0,0,0,0,0,0,0,0,0,0,0,0,0,
Big Bone Lick Ken-2,Mammals,38.866666666666674,-84.61666666666667,0,0,0,0,0,0,0,0,0,0,0,0,0,0,0,0,0,0,0,0,0,0,
Rolf Lee Farm [46MS51],Mammals,38.866666666666674,-82.11666666666666,0,0,0,0,0,0,0,0,0,0,0,0,0,0,0,0,0,0,0,0,0,0,
Overpeck [36BU5],Mammals,40.5,-75.11666666666666,0,0,0,0,0,0,0,0,0,0,0,0,0,0,0,0,0,0,0,0,0,0,
Fisher [36GR21],Mammals,39.866666666666674,-80.25,0,0,0,0,0,0,0,0,0,0,0,0,0,0,0,0,0,0,0,0,0,0,
Unami Creek Shelter [36MG19],Mammals,40.25,-75.36666666666666,0,0,0,0,0,0,0,0,0,0,0,0,0,0,0,0,0,0,0,0,0,0,
Fairport Harbor [33LA5],Mammals,41.61666666666666,-81.25,0,0,0,0,0,0,0,0,0,0,0,0,0,0,0,0,0,0,0,0,0,0,
Everhart Rockshelter [18FR4],Mammals,39.36666666666667,-77.36666666666666,0,0,0,0,0,0,0,0,0,0,0,0,0,0,0,0,0,0,0,0,0,0,
Palestine [11CW23],Mammals,39.0,-87.61666666666667,0,0,0,0,0,0,0,0,0,0,0,0,0,0,0,0,0,0,0,0,0,0,
Novak [36FA34],Mammals,39.866666666666674,-79.75,0,0,0,0,0,0,0,0,0,0,0,0,0,0,0,0,0,0,0,0,0,0,
Blockman [36BR83],Mammals,41.80833333333333,-76.48333333333335,0,0,0,0,0,0,0,0,0,0,0,0,0,0,0,0,0,0,0,0,0,0,
Faucett [36PI13A],Mammals,41.12,-74.9611111111111,0,0,0,0,0,0,0,0,0,0,0,0,0,0,0,0,0,0,0,0,4.0,4.0,
Friendsville [18GA23],Mammals,39.61666666666666,-79.36666666666666,0,0,0,0,0,0,0,0,0,0,0,0,0,0,0,0,0,0,0,0,0,0,
Gray [28WA580],Mammals,40.866666666666674,-75.0,0,0,0,0,0,0,0,0,0,0,0,0,0,0,0,0,0,0,0,0,0,0,
Cypress Creek Village Sites 11 and 12,Mammals,37.5,-87.25,0,0,0,0,0,0,0,0,0,0,0,0,0,0,0,0,0,0,0,0,0,0,
Newt Kash Shelter,Mammals,37.866666666666674,-83.61666666666667,0,0,0,0,0,0,0,0,0,0,0,0,0,0,0,0,0,0,0,0,0,0,
Tolu,Mammals,37.75,-83.61666666666667,0,0,0,0,0,0,0,0,0,0,0,0,0,0,0,0,0,0,0,0,0,0,
George W. Spencer Shelter,Mammals,37.61666666666666,-83.5,0,0,0,0,0,0,0,0,0,0,0,0,0,0,0,0,0,0,0,0,0,0,
Green Gentry Shelter,Mammals,37.61666666666666,-83.5,0,0,0,0,0,0,0,0,0,0,0,0,0,0,0,0,0,0,0,0,0,0,
Steven DeHart Shelter,Mammals,37.866666666666674,-83.86666666666666,0,0,0,0,0,0,0,0,0,0,0,0,0,0,0,0,0,0,0,0,0,0,
McCleod Bluff,Mammals,36.61666666666666,-89.0,0,0,0,0,0,0,0,0,0,0,0,0,0,0,0,0,0,0,0,0,0,0,
Chiggerville,Mammals,37.25,-86.86666666666666,0,0,0,0,0,0,0,0,0,0,0,0,0,0,0,0,0,0,0,0,0,0,
Dennis [Try 5],Mammals,42.61666666666666,-73.75,0,0,0,0,0,0,0,0,0,0,0,0,0,0,0,0,0,0,0,0,0,0,
Weinman [61f-17],Mammals,43.36666666666667,-73.61666666666667,0,0,0,0,0,0,0,0,0,0,0,0,0,0,0,0,0,0,0,0,0,0,
Hardin Village,Mammals,37.36666666666667,-88.25,0,0,0,0,0,0,0,0,0,0,0,0,0,0,0,0,0,0,0,0,0,0,
Fay Tolton [39ST11],Mammals,44.74722222222222,-100.3925,0,0,0,0,0,0,0,0,0,0,0,0,0,0,0,0,0,0,0,0,0,2.0,
Lab Woofie [11S346],Mammals,38.5,-90.11666666666666,0,0,0,0,0,0,0,0,0,0,0,0,0,0,0,0,0,0,0,0,0,0,
Mound [40LK3],Mammals,36.36666666666667,-89.36666666666666,0,0,0,0,0,0,0,0,0,0,0,0,0,0,0,0,0,0,0,0,0,8.0,
Parks [40CF58],Mammals,35.36666666666667,-86.11666666666666,0,0,0,0,0,0,0,0,0,0,0,0,0,0,0,0,0,0,0,0,0,0,
McFarland [40CF48],Mammals,35.36666666666667,-86.11666666666666,0,0,0,0,0,0,0,0,0,0,0,0,0,0,0,0,0,0,0,0,0,0,
Arkansas Post National Memorial [3AR47],Mammals,34.0,-91.25,0,0,0,0,0,0,0,0,0,0,0,0,0,0,0,0,0,0,0,0,0,0,
Albertson [3BE174],Mammals,36.36666666666667,-94.5,0,0,0,0,0,0,0,0,0,0,0,0,0,0,0,0,0,0,0,0,0,0,
Oatville Sand Pit,Mammals,37.61666666666666,-97.36666666666666,0,0,0,0,0,0,0,0,0,0,0,0,0,0,0,0,0,0,0,0,0,0,
Will Farley's Cave,Mammals,36.75,-81.86666666666666,0,0,0,0,0,0,0,0,0,0,0,0,0,0,0,0,0,0,0,0,0,0,
Eggleston Fissure,Mammals,37.28361111111112,-80.61333333333332,0,0,0,0,0,0,0,0,0,0,0,0,0,0,0,0,0,0,0,0,0,0,
Arcadia Cave #1 and #2,Mammals,37.5,-79.75,0,0,0,0,0,0,0,0,0,0,0,0,0,0,0,0,0,0,0,0,0,0,
Pembroke Railroad Cave #1,Mammals,37.25,-80.75,0,0,0,0,0,0,0,0,0,0,0,0,0,0,0,0,0,0,0,0,0,0,
Klotz Quarry Cave #5,Mammals,37.25,-80.75,0,0,0,0,0,0,0,0,0,0,0,0,0,0,0,0,0,0,0,0,0,0,
Toms Brook,Mammals,38.75,-78.5,0,0,0,0,0,0,0,0,0,0,0,0,0,0,0,0,0,0,0,0,0,0,
Bluff Shelter [DL-47],Mammals,36.5,-94.75,0,0,0,0,0,0,0,0,0,0,0,0,0,0,0,0,0,0,0,0,0,0,
Umatilla Mammoth [45BN254],Mammals,46.0,-119.36666666666666,0,0,0,0,0,0,0,0,0,0,0,0,0,0,0,0,0,0,0,0,0,0,
Berrian's Island [45BN53],Mammals,46.0,-119.36666666666666,0,0,0,0,0,0,0,0,0,0,0,0,0,0,0,0,0,0,0,0,0,0,
Lind Coulee [45GR97],Mammals,47.15,-119.0,0,0,0,0,0,0,0,0,0,0,0,0,0,6.0,0,6.0,0,0,0,0,0,0,
Marmes Rockshelter [45FR50],Mammals,46.61666666666666,-118.2,0,0,0,0,0,0,0,0,0,0,0,0,0,0,0,0,0,0,0,0,0,0,
Tule Springs,Mammals,36.31666666666666,-115.18972222222222,0,0,0,0,0,0,0,0,0,0,0,0,0,0,0,0,0,0,0,0,0,0,
Amy's Shelter [26WP230],Mammals,39.333333333333336,-114.08333333333331,0,0,0,0,0,0,0,0,0,0,0,0,0,0,0,0,0,1.0,0,2.0,0,1.0,
Cold Springs [35UM7],Mammals,45.866666666666674,-119.11666666666666,0,0,0,0,0,0,0,0,0,0,0,0,0,0,0,0,0,0,0,0,0,0,
Vulture Cave,Mammals,36.1,-113.93333333333334,0,0,0,0,0,0,0,0,0,0,0,0,0,0,0,0,0,0,0,0,0,0,
Glendale,Mammals,36.5,-114.36666666666666,0,0,0,0,0,0,0,0,0,0,0,0,0,0,0,0,0,0,0,0,0,0,
Ventana Cave [AZ Z:12:5],Mammals,32.333333333333336,-112.23333333333332,0,0,0,0,0,0,0,0,0,0,0,0,0,0,0,0,0,0,0,0,2.0,6.0,
Timothy's Village [Alpaweyma] [45AS82],Mammals,46.36666666666667,-117.11666666666666,0,0,0,0,0,0,0,0,0,0,0,0,0,0,0,0,0,0,0,10.0,16.0,10.0,
45AS80,Mammals,46.36666666666667,-117.11666666666666,0,0,0,0,0,0,0,0,0,0,0,0,0,0,0,0,0,0,0,0,0,0,
Pig Farm [45AS78],Mammals,46.36666666666667,-117.11666666666666,0,0,0,0,0,0,0,0,0,0,0,0,0,0,0,0,0,0,0,0,0,2.0,
Hanging Rock Shelter,Mammals,41.5,-119.36666666666666,0,0,0,0,0,0,0,0,0,0,0,0,0,0,0,0,0,0,0,0,0,0,
Deadman Cave,Mammals,32.36666666666667,-110.75,0,0,0,0,0,0,0,0,0,0,0,0,0,0,0,0,0,0,0,0,0,0,
Point of Pines,Mammals,33.25,-109.61666666666667,0,0,0,0,0,0,0,0,0,0,0,0,0,0,0,0,0,0,0,0,0,0,
Dry Cave,Mammals,32.37361111111111,-104.48194444444442,0,0,0,0,0,0,0,0,0,0,0,0,0,0,0,0,0,0,0,0,0,0,
Guadalupe Ruin,Mammals,35.5,-107.11666666666666,0,0,0,0,0,0,0,0,0,0,0,0,0,0,0,0,0,0,0,0,8.0,56.0,
U-Bar Cave [LA5689],Mammals,31.4745,-108.4337,0,0,0,0,0,0,0,0,0,0,0,0,0,0,0,0,0,0,0,0,0,0,
Granite Point [45WT41],Mammals,46.61666666666666,-117.36666666666666,0,0,0,0,0,0,0,0,0,0,0,0,0,0,0,0,0,0,0,0,0,0,
Ksunku [45FE45],Mammals,48.61666666666666,-118.11666666666666,0,0,0,0,0,0,0,0,0,0,0,0,0,0,0,0,0,0,0,0,0,0,
Tucannon [45CO1],Mammals,46.5,-118.0,0,0,0,0,0,0,0,0,0,0,0,0,0,0,0,0,0,0,0,0,0,0,
45WT2,Mammals,46.61666666666666,-118.11666666666666,0,0,0,0,0,0,0,0,0,0,0,0,0,0,6.0,15.0,0,0,0,0,29.0,23.0,
45WT7,Mammals,46.75,-117.75,0,0,0,0,0,0,0,0,0,0,0,0,0,0,0,0,0,0,0,0,0,0,
Ash Cave [45WW61],Mammals,46.5,-118.5,0,0,0,0,0,0,0,0,0,0,0,0,0,0,0,0,0,0,0,0,0,0,
Point St. George [DNo-11],Mammals,41.75,-124.11666666666666,0,0,0,0,0,0,0,0,0,0,0,0,0,0,0,0,0,0,0,0,0,0,
Shonitkwu [45FE44],Mammals,48.5,-118.0,0,0,0,0,0,0,0,0,0,0,0,0,0,0,0,0,0,0,0,0,0,0,
Umpqua/Eden [35DO83],Mammals,43.61666666666666,-124.11666666666666,0,0,0,0,0,0,0,0,0,0,0,0,0,0,0,0,0,0,0,2.0,2.0,22.0,
Seal Rock [35LNC14],Mammals,44.5,-124.0,0,0,0,0,0,0,0,0,0,0,0,0,0,0,0,0,0,0,0,0,0,22.0,
Black Mesa  D:10:1,Mammals,36.25,-110.61666666666667,0,0,0,0,0,0,0,0,0,0,0,0,0,0,0,0,0,0,0,0,0,0,
Black Mesa  D:9:1,Mammals,36.25,-110.75,0,0,0,0,0,0,0,0,0,0,0,0,0,0,0,0,0,0,0,0,0,0,
Whale Cove [35LNC60],Mammals,44.75,-124.0,0,0,0,0,0,0,0,0,0,0,0,0,0,0,0,0,0,0,0,0,0,0,
Bloom Mound,Mammals,33.25,-104.61666666666667,0,0,0,0,0,0,0,0,0,0,0,0,0,0,0,0,0,0,0,0,0,2.0,
Penasco,Mammals,32.866666666666674,-105.25,0,0,0,0,0,0,0,0,0,0,0,0,0,0,0,0,0,0,0,0,0,6.0,
Bonnell,Mammals,32.36666666666667,-105.36666666666666,0,0,0,0,0,0,0,0,0,0,0,0,0,0,0,0,0,0,0,0,0,0,
Hiner,Mammals,34.11666666666667,-105.36666666666666,0,0,0,0,0,0,0,0,0,0,0,0,0,0,0,0,0,0,0,0,0,2.0,
Phillips,Mammals,33.61666666666666,-105.61666666666667,0,0,0,0,0,0,0,0,0,0,0,0,0,0,0,0,0,0,0,0,0,0,
Block Lookout,Mammals,33.61666666666666,-105.36666666666666,0,0,0,0,0,0,0,0,0,0,0,0,0,0,0,0,0,0,0,0,0,2.0,
Charlie Lake Cave [HbRf39],Mammals,56.276388888888896,-120.9375,0,0,0,0,0,0,0,0,0,0,0,0,0,0,0,0,0,0,0,0,0,0,
Lovelock Cave [26CH18],Mammals,39.961666666666666,-118.55694444444444,0,0,0,0,0,0,0,0,0,0,0,0,0,0,0,0,0,0,0,0,0,0,
Armijo Springs Site LA 5939,Mammals,34.11666666666667,-108.5,0,0,0,0,0,0,0,0,0,0,0,0,0,0,0,0,0,0,0,0,0,0,
Apache Creek Site LA 8891,Mammals,33.75,-108.5,0,0,0,0,0,0,0,0,0,0,0,0,0,0,0,0,0,0,0,0,0,0,
Castle Rock [LA 5407],Mammals,34.25,-108.5,0,0,0,0,0,0,0,0,0,0,0,0,0,0,0,0,0,0,0,0,0,0,
Whiskey Creek Site LA 4986,Mammals,33.866666666666674,-108.61666666666667,0,0,0,0,0,0,0,0,0,0,0,0,0,0,0,0,0,0,0,0,0,0,
Whiskey Creek Site LA 4987,Mammals,33.866666666666674,-108.61666666666667,0,0,0,0,0,0,0,0,0,0,0,0,0,0,0,0,0,0,0,0,0,0,
Whiskey Creek Site LA 4988,Mammals,33.866666666666674,-108.61666666666667,0,0,0,0,0,0,0,0,0,0,0,0,0,0,0,0,0,0,0,0,0,0,
Whiskey Creek Site LA 4989,Mammals,33.866666666666674,-108.61666666666667,0,0,0,0,0,0,0,0,0,0,0,0,0,0,0,0,0,0,0,0,0,0,
Tularosa Cave,Mammals,33.866666666666674,-108.5,0,0,0,0,0,0,0,0,0,0,0,0,0,0,0,0,0,0,0,8.0,16.0,4.0,
Snaketown [U:13:1],Mammals,33.18388888888889,-111.9175,0,0,0,0,0,0,0,0,0,0,0,0,0,0,0,0,0,0,0,0,2.0,0,
Black Mesa D:7:0236,Mammals,36.5,-110.25,0,0,0,0,0,0,0,0,0,0,0,0,0,0,0,0,0,0,0,0,2.0,0,
Black Mesa D:7:0239,Mammals,36.5,-110.25,0,0,0,0,0,0,0,0,0,0,0,0,0,0,0,0,0,0,0,0,2.0,0,
Black Mesa D:7:0023,Mammals,36.5,-110.36666666666666,0,0,0,0,0,0,0,0,0,0,0,0,0,0,0,0,0,0,0,0,2.0,2.0,
Black Mesa D:11:0073,Mammals,36.36666666666667,-110.36666666666666,0,0,0,0,0,0,0,0,0,0,0,0,0,0,0,0,0,0,0,0,2.0,2.0,
Black Mesa D:11:2062,Mammals,36.36666666666667,-110.36666666666666,0,0,0,0,0,0,0,0,0,0,0,0,0,0,0,0,0,0,0,0,2.0,2.0,
Black Mesa D:7:0704,Mammals,36.5,-110.36666666666666,0,0,0,0,0,0,0,0,0,0,0,0,0,0,0,0,0,0,0,0,0,2.0,
Black Mesa D:7:0725,Mammals,36.5,-110.36666666666666,0,0,0,0,0,0,0,0,0,0,0,0,0,0,0,0,0,0,0,0,0,2.0,
Black Mesa D:11:0275,Mammals,36.36666666666667,-110.25,0,0,0,0,0,0,0,0,0,0,0,0,0,0,0,0,0,0,0,0,0,2.0,
Shelter Cave,Mammals,32.1833333333333,-106.6,0,0,0,0,0,0,0,0,0,0,0,0,0,0,0,0,0,0,0,0,0,0,
Grasshopper Pueblo [P:14:1],Mammals,34.08333333333333,-110.66666666666669,0,0,0,0,0,0,0,0,0,0,0,0,0,0,0,0,0,0,0,0,0,442.0,
Stone Lagoon,Mammals,41.11666666666667,-124.0,0,0,0,0,0,0,0,0,0,0,0,0,0,0,0,0,0,0,0,0,0,0,
Patrick's Point,Mammals,41.03333333333334,-124.11666666666666,0,0,0,0,0,0,0,0,0,0,0,0,0,0,0,0,0,0,0,0,0,0,
Gunther Island,Mammals,40.75,-124.11666666666666,0,0,0,0,0,0,0,0,0,0,0,0,0,0,0,0,0,0,0,0,0,0,
Mattole River,Mammals,40.25,-124.25,0,0,0,0,0,0,0,0,0,0,0,0,0,0,0,0,0,0,0,0,0,0,
Spanish Flat,Mammals,40.25,-124.25,0,0,0,0,0,0,0,0,0,0,0,0,0,0,0,0,0,0,0,0,0,0,
Shelter Cove,Mammals,40.0,-124.0,0,0,0,0,0,0,0,0,0,0,0,0,0,0,0,0,0,0,0,0,0,0,
Baldy Peak Cave [MALB 29],Mammals,32.11666666666667,-107.75,0,0,0,0,0,0,0,0,0,0,0,0,0,0,0,0,0,0,0,0,0,0,
Antelope Cave [SBC1.10.10],Mammals,35.36666666666667,-115.5,0,0,0,0,0,0,0,0,0,0,0,0,0,0,0,0,0,0,0,0,0,0,
Kokoweef Cave [SBC1.11.13],Mammals,35.416666666666664,-115.5,0,0,0,0,0,0,0,0,0,0,0,0,0,0,0,0,0,0,0,0,0,0,
Mercer Cave [UCMPV67108],Mammals,38.15166666666667,-120.47666666666667,0,0,0,0,0,0,0,0,0,0,0,0,0,0,0,0,0,0,0,0,0,0,
Hawver Cave [UCMP 1069],Mammals,38.866666666666674,-120.86666666666666,0,0,0,0,0,0,0,0,0,0,0,0,0,0,0,0,0,0,0,0,0,0,
Lone Tree Point [UCMP 1355],Mammals,38.03555555555556,-122.27333333333333,0,0,0,0,0,0,0,0,0,0,0,0,0,0,0,0,0,0,0,0,0,0,
Tranquility [UCMPV44001],Mammals,36.68444444444444,-120.22694444444446,0,0,0,0,0,0,0,0,0,0,0,0,0,0,0,0,0,0,0,0,0,0,
China Lake Locality LACM 7013,Mammals,35.61666666666666,-117.61666666666667,0,0,0,0,0,0,0,0,0,0,0,0,0,0,0,0,0,0,0,0,0,0,
Elk Creek Lake Site 35JA27A,Mammals,42.61666666666666,-122.61666666666667,0,0,0,0,0,0,0,0,0,0,0,0,0,0,0,0,2.0,0,0,0,0,2.0,
Elk Creek Lake Site 35JA27B,Mammals,42.61666666666666,-122.61666666666667,0,0,0,0,0,0,0,0,0,0,0,0,0,0,0,0,0,0,0,0,0,0,
Elk Creek Lake Site 35JA59,Mammals,42.61666666666666,-122.61666666666667,0,0,0,0,0,0,0,0,0,0,0,0,0,0,0,0,0,0,0,0,0,0,
Elk Creek Lake Site 35JA100,Mammals,42.61666666666666,-122.61666666666667,0,0,0,0,0,0,0,0,0,0,0,0,0,0,0,0,0,0,0,0,0,0,
Dudley Ridge [Witt Site] [UCMPV75041],Mammals,35.941944444444445,-119.78277777777777,0,0,0,0,0,0,0,0,0,0,0,0,0,0,0,0,0,0,0,0,0,0,
Naval Fuel Reserve Quarry [SDSNH 3246],Mammals,33.7,-118.11666666666666,0,0,0,0,0,0,0,0,0,0,0,0,0,0,0,0,0,0,0,0,0,0,
Zuma Creek [LACM 1754],Mammals,33.75,-118.25,0,0,0,0,0,0,0,0,0,0,0,0,0,0,0,0,0,0,0,0,0,0,
Teichart Gravel Pit [UCMPV69129],Mammals,38.535,-121.37027777777776,0,0,0,0,0,0,0,0,0,0,0,0,0,0,0,0,0,0,0,0,0,0,
Wildcat Canyon [35GM9],Mammals,45.61666666666666,-120.36666666666666,0,0,0,0,0,0,0,0,0,0,0,0,0,0,0,0,0,0,0,0,0,0,
Carpinteria [LACM 139],Mammals,34.38583333333333,-119.505,0,0,0,0,0,0,0,0,0,0,0,0,0,0,0,0,0,0,0,0,0,0,
Mountain View Dump [USGS 1227],Mammals,37.428333333333335,-122.08833333333334,0,0,0,0,0,0,0,0,0,0,0,0,0,0,0,0,0,0,0,0,0,0,
Chief Joseph Dam Site 45OK4,Mammals,48.11666666666667,-119.11666666666666,0,0,0,0,0,0,0,0,0,0,0,0,0,0,0,0,0,0,36.0,0,0,2.0,
Chief Joseph Dam Site 45OK250,Mammals,48.11666666666667,-119.11666666666666,0,0,0,0,0,0,0,0,0,0,0,0,0,0,0,0,0,0,20.0,0,0,6.0,
Chief Joseph Dam Site 45OK287/288,Mammals,48.11666666666667,-119.25,0,0,0,0,0,0,0,0,0,0,0,0,0,0,0,0,0,0,2.0,0,8.0,12.0,
Chief Joseph Dam Site 45DO204,Mammals,48.11666666666667,-119.25,0,0,0,0,0,0,0,0,0,0,0,0,0,0,0,0,0,0,0,0,0,0,
Chief Joseph Dam Site 45DO273,Mammals,48.0,-119.36666666666666,0,0,0,0,0,0,0,0,0,0,0,0,0,0,0,0,0,0,0,0,0,4.0,
Chief Joseph Dam Site 45DO326,Mammals,48.0,-119.36666666666666,0,0,0,0,0,0,0,0,0,0,0,0,0,0,0,0,0,0,0,0,0,0,
Chief Joseph Dam Site 45DO282,Mammals,48.0,-119.36666666666666,0,0,0,0,0,0,0,0,0,0,0,0,0,0,0,0,0,0,0,0,0,0,
Chief Joseph Dam Site 45OK258,Mammals,48.11666666666667,-119.11666666666666,0,0,0,0,0,0,0,0,0,0,0,0,0,0,0,0,0,0,0,0,0,0,
Chief Joseph Dam Site 45OK11,Mammals,48.11666666666667,-119.11666666666666,0,0,0,0,0,0,0,0,0,0,0,0,0,0,0,0,0,0,0,0,0,0,
Chief Joseph Dam Site 45OK2,Mammals,48.11666666666667,-119.0,0,0,0,0,0,0,0,0,0,0,0,0,0,0,0,0,0,0,0,28.0,0,10.0,
Chief Joseph Dam Site 45OK2A,Mammals,48.11666666666667,-119.0,0,0,0,0,0,0,0,0,0,0,0,0,0,0,0,0,0,0,0,0,0,0,
Chief Joseph Dam Site 45DO211,Mammals,48.0,-119.0,0,0,0,0,0,0,0,0,0,0,0,0,0,0,0,0,0,0,4.0,8.0,0,0,
Chief Joseph Dam Site 45DO285,Mammals,48.0,-119.0,0,0,0,0,0,0,0,0,0,0,0,0,0,0,0,0,0,0,0,0,0,0,
Chief Joseph Dam Site 45DO214,Mammals,48.0,-119.0,0,0,0,0,0,0,0,0,0,0,0,0,0,0,0,0,0,0,0,0,0,0,
Chief Joseph Dam Site 45DO242,Mammals,48.0,-119.11666666666666,0,0,0,0,0,0,0,0,0,0,0,0,0,0,0,0,0,0,0,0,0,0,
Chief Joseph Dam Site 45DO243,Mammals,48.0,-119.11666666666666,0,0,0,0,0,0,0,0,0,0,0,0,0,0,0,0,0,0,0,0,2.0,4.0,
Applegate River Site 35JA42 [35JA42],Mammals,42.0,-123.0,0,0,0,0,0,0,0,0,0,0,0,0,0,0,0,0,0,0,0,0,0,0,
Squaw Lake [35JA69],Mammals,42.0,-123.0,0,0,0,0,0,0,0,0,0,0,0,0,0,0,0,0,0,0,0,0,0,0,
35JA107,Mammals,42.61666666666666,-122.61666666666667,0,0,0,0,0,0,0,0,0,0,0,0,0,0,0,0,0,0,0,0,0,0,
35JA52,Mammals,42.0,-123.11666666666666,0,0,0,0,0,0,0,0,0,0,0,0,0,0,0,0,0,0,0,0,0,0,
35JA53,Mammals,42.0,-123.11666666666666,0,0,0,0,0,0,0,0,0,0,0,0,0,0,0,0,0,0,0,0,0,0,
Layser Cave [45LE223],Mammals,46.36666666666667,-121.75,0,0,0,0,0,0,0,0,0,0,0,0,0,0,0,0,0,0,0,0,0,0,
Judd Peak North [45LE222N],Mammals,46.5,-121.86666666666666,0,0,0,0,0,0,0,0,0,0,0,0,0,0,0,0,4.0,0,20.0,0,0,48.0,
Judd Peak South [45LE225S],Mammals,46.5,-121.86666666666666,0,0,0,0,0,0,0,0,0,0,0,0,0,0,0,0,0,0,0,0,0,0,
Felter Hill [42Dc2],Mammals,40.25,-110.11666666666666,0,0,0,0,0,0,0,0,0,0,0,0,0,0,0,0,0,0,0,0,0,0,
Whiterocks Village [45Un170],Mammals,40.5,-109.86666666666666,0,0,0,0,0,0,0,0,0,0,0,0,0,0,0,0,0,0,0,0,0,0,
Snake Rock Village,Mammals,38.75,-111.25,0,0,0,0,0,0,0,0,0,0,0,0,0,0,0,0,0,0,0,0,0,8.0,
Nephi Mound 1 [42Jb2],Mammals,39.75,-111.75,0,0,0,0,0,0,0,0,0,0,0,0,0,0,0,0,0,0,0,0,0,0,
Bear River No. 1,Mammals,41.36666666666667,-112.11666666666666,0,0,0,0,0,0,0,0,0,0,0,0,0,0,0,0,0,0,0,0,0,0,
Albino Village [LA 4269],Mammals,36.866666666666674,-107.5,0,0,0,0,0,0,0,0,0,0,0,0,0,0,0,0,0,0,0,0,1.0,0,
Bancos Village [LA 4380],Mammals,36.866666666666674,-107.36666666666666,0,0,0,0,0,0,0,0,0,0,0,0,0,0,0,0,0,0,0,0,1.0,0,
Potosi Mountain Midden 2,Mammals,36.0,-115.38333333333334,0,0,0,0,0,0,0,0,0,0,0,0,0,0,0,0,0,0,0,0,0,0,
Dam Local Fauna [ISUM 52002],Mammals,42.75,-112.75,0,0,0,0,0,0,0,0,0,0,0,0,0,0,0,0,0,0,0,0,0,0,
Middle Pecos Valley Site P4,Mammals,34.11666666666667,-104.11666666666666,0,0,0,0,0,0,0,0,0,0,0,0,0,0,0,0,0,0,0,0,0,0,
Malad Hill [10-Oa-2],Mammals,42.25,-112.11666666666666,0,0,0,0,0,0,0,0,0,0,0,0,0,0,0,0,0,0,0,0,0,0,
Bernard Creek Rockshelter [10Ih483],Mammals,45.36666666666667,-116.5,0,0,0,0,0,0,0,0,0,0,0,0,0,0,0,0,0,0,0,0,0,0,
Philpott [35CS1],Mammals,43.11666666666667,-124.36666666666666,0,0,0,0,0,0,0,0,0,0,0,0,0,0,0,0,0,0,0,0,0,0,
Lava Island Rockshelter [35DS86],Mammals,43.866666666666674,-121.36666666666666,0,0,0,0,0,0,0,0,0,0,0,0,0,0,0,0,0,0,0,0,0,0,
Bison Rockshelter [10CL10],Mammals,44.08333333333333,-112.91666666666666,0,0,0,0,0,0,0,0,0,0,0,0,0,0,0,2.0,2.0,0,2.0,20.0,0,50.0,
Veratic Rockshelter [10CL3],Mammals,44.08333333333333,-112.91666666666666,0,0,0,0,0,0,0,0,0,0,0,0,0,0,0,4.0,2.0,4.0,12.0,10.0,0,12.0,
10AA15,Mammals,42.866666666666674,-116.0,0,0,0,0,0,0,0,0,0,0,0,0,0,0,0,0,0,0,0,0,0,0,
Rock Creek [10CA33],Mammals,42.11666666666667,-114.11666666666666,0,0,0,0,0,0,0,0,0,0,0,0,0,0,0,0,0,0,0,0,0,0,
Rattlesnake Canyon,Mammals,42.866666666666674,-115.75,0,0,0,0,0,0,0,0,0,0,0,0,0,0,0,0,0,0,0,0,0,1.0,
Robinette Village [35BA5],Mammals,44.75,-117.0,0,0,0,0,0,0,0,0,0,0,0,0,0,0,0,0,0,0,0,0,0,0,
Robinette Rockshelter [Robinette Cave] [35BA3],Mammals,44.75,-117.0,0,0,0,0,0,0,0,0,0,0,0,0,0,0,0,0,0,0,0,0,0,0,
Ray [35BA23],Mammals,44.866666666666674,-116.86666666666666,0,0,0,0,0,0,0,0,0,0,0,0,0,0,0,0,0,0,0,0,0,0,
Hinckley Mound 2 [42UT111],Mammals,40.11666666666667,-111.61666666666667,0,0,0,0,0,0,0,0,0,0,0,0,0,0,0,0,0,0,0,0,2.0,2.0,
Hinckley Mound 3 [Christensen's Mound 3] [42UT110],Mammals,40.11666666666667,-111.61666666666667,0,0,0,0,0,0,0,0,0,0,0,0,0,0,0,0,0,0,0,0,12.0,12.0,
Woodard Mound [42UT102],Mammals,40.0,-111.86666666666666,0,0,0,0,0,0,0,0,0,0,0,0,0,0,0,0,0,0,0,0,4.0,4.0,
Seamons Mound [42UT271],Mammals,40.11666666666667,-111.61666666666667,0,0,0,0,0,0,0,0,0,0,0,0,0,0,0,0,0,0,0,0,0,0,
Spaulding [10NP108],Mammals,46.36666666666667,-116.75,0,0,0,0,0,0,0,0,0,0,0,0,0,0,0,0,0,0,0,0,0,0,
Hontoon Island [8VO202],Mammals,28.866666666666667,-81.25,0,0,0,0,0,0,0,0,0,0,0,0,0,0,0,0,0,0,0,0,0,14.0,
Lehigh,Mammals,25.75,-80.36666666666666,0,0,0,0,0,0,0,0,0,0,0,0,0,0,0,0,0,0,0,0,0,0,
Madden [Dd45],Mammals,25.866666666666667,-80.25,0,0,0,0,0,0,0,0,0,0,0,0,0,0,0,0,0,0,0,0,0,0,
Maximo Point,Mammals,27.75,-82.61666666666667,0,0,0,0,0,0,0,0,0,0,0,0,0,0,0,0,0,0,0,0,0,0,
Narvaez Midden [8PI54],Mammals,27.75,-82.75,0,0,0,0,0,0,0,0,0,0,0,0,0,0,0,0,0,0,0,0,0,0,
St. John's Bluff [8DU106],Mammals,30.366666666666664,-81.5,0,0,0,0,0,0,0,0,0,0,0,0,0,0,0,0,0,0,0,0,0,0,
Shell Mound,Mammals,29.116666666666667,-83.0,0,0,0,0,0,0,0,0,0,0,0,0,0,0,0,0,0,0,0,0,0,0,
Summer Haven,Mammals,29.616666666666667,-81.25,0,0,0,0,0,0,0,0,0,0,0,0,0,0,0,0,0,0,0,0,0,0,
Tampa Bay Shell Deposits,Mammals,27.616666666666667,-82.5,0,0,0,0,0,0,0,0,0,0,0,0,0,0,0,0,0,0,0,0,0,0,
Waddells Mill Pond [8JA65],Mammals,30.866666666666667,-85.25,0,0,0,0,0,0,0,0,0,0,0,0,0,0,0,0,0,0,0,0,0,0,
Bay Pines [8PI64],Mammals,27.75,-82.75,0,0,0,0,0,0,0,0,0,0,0,0,0,0,0,0,0,0,0,0,0,0,
Cagles Hammock,Mammals,26.116666666666667,-80.25,0,0,0,0,0,0,0,0,0,0,0,0,0,0,0,0,0,0,0,0,0,0,
Guest Mammoth [8MR130],Mammals,29.866666666666667,-82.0,0,0,0,0,0,0,0,0,0,0,0,0,0,0,0,0,0,0,0,0,0,0,
Lake Apopka I [8OR17],Mammals,28.616666666666667,-81.5,0,0,0,0,0,0,0,0,0,0,0,0,0,0,0,0,0,0,0,0,0,0,
Markham Park Mound No. 2,Mammals,26.116666666666667,-80.36666666666666,0,0,0,0,0,0,0,0,0,0,0,0,0,0,0,0,0,0,0,0,0,0,
Republic Groves [8HR4],Mammals,27.366666666666664,-81.75,0,0,0,0,0,0,0,0,0,0,0,0,0,0,0,0,0,0,0,0,0,0,
Bay West [8CR200],Mammals,26.0,-81.61666666666667,0,0,0,0,0,0,0,0,0,0,0,0,0,0,0,1.0,0,0,0,0,0,0,
Bishops Hammock [8BD66],Mammals,26.116666666666667,-80.25,0,0,0,0,0,0,0,0,0,0,0,0,0,0,0,0,0,0,0,0,0,0,
Alligator Ford [8CI199],Mammals,28.75,-82.11666666666666,0,0,0,0,0,0,0,0,0,0,0,0,0,0,0,0,0,0,0,0,0,0,
Hornsville [8JA387],Mammals,30.866666666666667,-85.0,0,0,0,0,0,0,0,0,0,0,0,0,0,0,0,0,0,0,0,0,0,0,
Mulberry Mound [8OR10],Mammals,28.366666666666664,-80.86666666666666,0,0,0,0,0,0,0,0,0,0,0,0,0,0,0,0,0,0,0,0,0,0,
Gingery Cache [8TA99],Mammals,30.116666666666667,-83.86666666666666,0,0,0,0,0,0,0,0,0,0,0,0,0,0,0,0,0,0,0,0,0,0,
Waccasassa River 2B and 3A,Mammals,29.25,-82.61666666666667,0,0,0,0,0,0,0,0,0,0,0,0,0,0,0,0,0,0,0,0,0,0,
Humboldt Lakebed [26CH15],Mammals,39.866666666666674,-118.5,0,0,0,0,0,0,0,0,0,0,0,0,0,0,0,0,0,0,0,0,0,0,
American Falls,Mammals,42.75,-112.86666666666666,0,0,0,0,0,0,0,0,0,0,0,0,0,0,0,0,0,0,0,0,0,0,
Border Village [35KL16],Mammals,42.0,-122.25,0,0,0,0,0,0,0,0,0,0,0,0,0,0,0,0,0,0,0,0,0,56.0,
Klamath Shoal Midden [Salt Cave Locality Site 7] [35KL21],Mammals,42.0,-122.11666666666666,0,0,0,0,0,0,0,0,0,0,0,0,0,0,0,0,0,0,0,0,0,0,
Big Boulder Village [Salt Cave Locality Site 4] [35KL18],Mammals,42.0,-122.11666666666666,0,0,0,0,0,0,0,0,0,0,0,0,0,0,0,0,0,0,0,0,0,14.0,
Bell-Philhower,Mammals,41.25,-74.61666666666667,0,0,0,0,0,0,0,0,0,0,0,0,0,0,0,0,0,0,0,0,0,0,
Shaffer,Mammals,39.11666666666667,-87.0,0,0,0,0,0,0,0,0,0,0,0,0,0,0,0,0,0,0,0,0,0,0,
Nowlin Mound,Mammals,39.11666666666667,-84.86666666666666,0,0,0,0,0,0,0,0,0,0,0,0,0,0,0,0,0,0,0,0,0,0,
Yankeetown [12W1],Mammals,37.916666666666664,-87.25,0,0,0,0,0,0,0,0,0,0,0,0,0,0,0,0,0,0,0,0,0,0,
12W6,Mammals,37.916666666666664,-87.25,0,0,0,0,0,0,0,0,0,0,0,0,0,0,0,0,0,0,0,0,0,0,
Wolf,Mammals,42.5,-82.86666666666666,0,0,0,0,0,0,0,0,0,0,0,0,0,0,0,0,0,0,0,0,0,0,
Henderson [LA-1549],Mammals,33.3,-104.66666666666669,0,0,0,0,0,0,0,0,0,0,0,0,0,0,0,0,0,0,0,0,0,0,
Young [3BA20],Mammals,36.25,-92.25,0,0,0,0,0,0,0,0,0,0,0,0,0,0,0,0,0,0,0,0,0,0,
Soc [3WH34],Mammals,35.25,-91.61666666666667,0,0,0,0,0,0,0,0,0,0,0,0,0,0,0,0,0,0,0,0,0,0,
Rocky Hollow Shelter [23SR626],Mammals,37.866666666666674,-93.75,0,0,0,0,0,0,0,0,0,0,0,0,0,0,0,0,0,0,0,0,6.0,0,
Magnolia Spring Shelter [23SR473],Mammals,38.0,-93.75,0,0,0,0,0,0,0,0,0,0,0,0,0,0,0,0,0,0,0,0,0,0,
Lutz Bluff Shelter [23SR136],Mammals,37.866666666666674,-93.75,0,0,0,0,0,0,0,0,0,0,0,0,0,0,0,0,0,0,0,0,8.0,0,
Turner Cave [3MA20],Mammals,36.11666666666667,-93.75,0,0,0,0,0,0,0,0,0,0,0,0,0,0,0,0,0,0,0,0,0,16.0,
Little Crane Lake [16MO7],Mammals,32.866666666666674,-91.61666666666667,0,0,0,0,0,0,0,0,0,0,0,0,0,0,0,0,0,0,0,0,0,0,
Falling Water Falls [3PP40],Mammals,35.61666666666666,-92.86666666666666,0,0,0,0,0,0,0,0,0,0,0,0,0,0,0,0,0,0,0,0,0,0,
Lander Shelter [23SN245],Mammals,36.61666666666666,-93.25,0,0,0,0,0,0,0,0,0,0,0,0,0,0,0,0,0,0,0,0,0,0,
Star Ridge Cairn [23PO165],Mammals,37.75,-93.25,0,0,0,0,0,0,0,0,0,0,0,0,0,0,0,0,0,0,0,0,0,0,
Mount India Cairn [23HI30],Mammals,37.866666666666674,-93.36666666666666,0,0,0,0,0,0,0,0,0,0,0,0,0,0,0,0,0,0,0,0,0,0,
Karr's Camp Mound [23BE117],Mammals,38.30166666666666,-93.45694444444443,0,0,0,0,0,0,0,0,0,0,0,0,0,0,0,0,0,0,0,0,0,0,
Mandrake Mound [23HE139],Mammals,38.26861111111111,-93.55861111111109,0,0,0,0,0,0,0,0,0,0,0,0,0,0,0,0,0,0,0,0,0,0,
Melanin Mound 2 [23BE136],Mammals,38.12555555555556,-93.38027777777776,0,0,0,0,0,0,0,0,0,0,0,0,0,0,0,0,0,0,0,0,0,0,
Morgan Mound [23DA201],Mammals,37.565,-93.63222222222221,0,0,0,0,0,0,0,0,0,0,0,0,0,0,0,0,0,0,0,0,0,0,
Magistrate Bluff Mound [23SR138],Mammals,37.953611111111115,-93.61888888888888,0,0,0,0,0,0,0,0,0,0,0,0,0,0,0,0,0,0,0,0,0,0,
Briley Creek Mound [23SR141],Mammals,38.09194444444444,-93.5675,0,0,0,0,0,0,0,0,0,0,0,0,0,0,0,0,0,0,0,0,0,0,
Boyce Mound [23J40],Mammals,38.11666666666667,-90.36666666666666,0,0,0,0,0,0,0,0,0,0,0,0,0,0,0,0,0,0,0,0,0,0,
Beck Shelter [23HI247],Mammals,38.0,-93.25,0,0,0,0,0,0,0,0,0,0,0,0,0,0,0,0,0,0,0,0,0,0,
Potts Village [39CO19],Mammals,45.5,-100.36666666666666,0,0,0,0,0,0,0,0,0,0,0,0,0,0,0,0,0,0,0,0,0,0,
Sorter's Bluff [23CE150],Mammals,37.60055555555555,-93.76194444444445,0,0,0,0,0,0,0,0,0,0,0,0,0,0,0,0,0,0,0,0,0,0,
Bowling Stone Mound [23CE152],Mammals,37.61694444444445,-93.65722222222223,0,0,0,0,0,0,0,0,0,0,0,0,0,0,0,0,0,0,0,0,0,0,
Sycamore Bridge Mound [23CE154],Mammals,37.6075,-93.77722222222219,0,0,0,0,0,0,0,0,0,0,0,0,0,0,0,0,0,0,0,0,0,0,
Divine Mound [23DA226],Mammals,37.50194444444445,-93.795,0,0,0,0,0,0,0,0,0,0,0,0,0,0,0,0,0,0,0,0,0,0,
Paradise [23DA246],Mammals,37.57222222222222,-93.62166666666668,0,0,0,0,0,0,0,0,0,0,0,0,0,0,0,0,0,0,0,0,0,0,
Slick Rock Mound [23PO306],Mammals,37.540833333333325,-93.5291666666667,0,0,0,0,0,0,0,0,0,0,0,0,0,0,0,0,0,0,0,0,0,0,
Bunker Hill Mound [23DA225],Mammals,37.4425,-93.66250000000002,0,0,0,0,0,0,0,0,0,0,0,0,0,0,0,0,0,0,0,0,0,0,
Umber Point Mound [23CE148],Mammals,37.62,-93.76944444444445,0,0,0,0,0,0,0,0,0,0,0,0,0,0,0,0,0,0,0,0,0,0,
Blue Earth Village,Mammals,39.25,-96.5,0,0,0,0,0,0,0,0,0,0,0,0,0,0,0,0,0,0,0,0,0,12.0,
Kimmswick,Mammals,38.379444444444445,-90.38472222222221,0,0,0,0,0,0,0,0,0,0,0,0,0,0,0,0,0,0,0,0,0,0,
Naugle [20MD30],Mammals,43.61666666666666,-84.36666666666666,0,0,0,0,0,0,0,0,0,0,0,0,0,0,0,0,0,0,0,0,0,0,
Morin [20MO40],Mammals,41.73333333333333,-83.48333333333335,0,0,0,0,0,0,0,0,0,0,0,0,0,0,0,0,0,0,0,0,0,0,
Norge Village,Mammals,45.866666666666674,-84.75,0,0,0,0,0,0,0,0,0,0,0,0,0,0,0,0,0,0,0,0,0,0,
Fisher Lake [20LU21],Mammals,44.866666666666674,-85.75,0,0,0,0,0,0,0,0,0,0,0,0,0,0,0,0,0,0,0,0,0,0,
I-96 Site,Mammals,42.61666666666666,-84.61666666666667,0,0,0,0,0,0,0,0,0,0,0,0,0,0,0,0,0,0,0,0,0,0,
Carter Creek [11MD817],Mammals,40.25,-90.61666666666667,0,0,0,0,0,0,0,0,0,0,0,0,0,0,0,0,0,0,0,0,0,0,
Nile Roeder [47WN97],Mammals,44.0,-88.5,0,0,0,0,0,0,0,0,0,0,0,0,0,0,0,0,0,0,0,0,0,0,
Klug [47OZ26],Mammals,43.25,-87.86666666666666,0,0,0,0,0,0,0,0,0,0,0,0,0,0,0,0,0,0,0,0,0,0,
Muskeeta Cove 2,Mammals,40.866666666666674,-73.61666666666667,0,0,0,0,0,0,0,0,0,0,0,0,0,0,0,0,0,0,0,0,2.0,0,
Pickup Pueblo,Mammals,31.75,-106.36666666666666,0,0,0,0,0,0,0,0,0,0,0,0,0,0,0,0,0,0,0,0,0,0,
Hall's Cave [41KR474] [41229],Mammals,30.13333333333333,-99.54166666666663,0,0,0,0,0,0,0,0,0,0,0,0,0,0,0,0,0,0,0,0,0,0,
Hanging Valley [13HR28],Mammals,41.75,-96.0,0,0,0,0,0,0,0,0,0,0,0,0,0,0,0,0,0,0,0,0,0,0,
Williamson [14CF330],Mammals,38.2825,-95.8788888888889,0,0,0,0,0,0,0,0,0,0,0,0,0,0,0,0,0,0,0,0,0,0,
Boundary Mound Group [32SI1],Mammals,46.0,-100.61666666666667,0,0,0,0,0,0,0,0,0,0,0,0,0,0,0,0,0,0,0,0,0,0,
Meander [39LM201],Mammals,43.75,-99.5,0,0,0,0,0,0,0,0,0,0,0,0,0,0,0,0,0,0,0,0,0,0,
Gilligan [14CF332],Mammals,38.27,-95.94888888888887,0,0,0,0,0,0,0,0,0,0,0,0,0,0,0,0,0,0,0,0,0,0,
Two Dog [14MO301],Mammals,39.73333333333333,-96.53055555555557,0,0,0,0,0,0,0,0,0,0,0,0,0,0,0,0,0,0,0,0,0,0,
Cow Killer [14OS347],Mammals,38.61666666666666,-95.75,0,0,0,0,0,0,0,0,0,0,0,0,0,0,0,0,0,0,0,0,0,0,
Roth [14BO319],Mammals,37.866666666666674,-94.61666666666667,0,0,0,0,0,0,0,0,0,0,0,0,0,0,0,0,0,0,0,0,0,0,
14MM7,Mammals,38.5,-94.61666666666667,0,0,0,0,0,0,0,0,0,0,0,0,0,0,0,0,0,0,0,0,0,0,
Hatcher [14DO19],Mammals,38.866666666666674,-95.25,0,0,0,0,0,0,0,0,0,0,0,0,0,0,0,0,0,0,0,0,0,0,
Anderson [14JF331],Mammals,39.11666666666667,-95.36666666666666,0,0,0,0,0,0,0,0,0,0,0,0,0,0,0,0,0,0,0,0,0,0,
Kampschroeder [14DO27],Mammals,38.866666666666674,-95.25,0,0,0,0,0,0,0,0,0,0,0,0,0,0,0,0,0,0,0,0,0,0,
34WA5,Mammals,35.25,-99.0,0,0,0,0,0,0,0,0,0,0,0,0,0,0,0,0,0,0,0,0,0,12.0,
Lacy [34GV5],Mammals,34.61666666666666,-97.25,0,0,0,0,0,0,0,0,0,0,0,0,0,0,0,0,0,0,0,0,0,18.0,
Brewer [34ML3],Mammals,35.0,-97.5,0,0,0,0,0,0,0,0,0,0,0,0,0,0,0,0,0,0,0,0,0,24.0,
Manton Miller [41DT],Mammals,33.25,-95.61666666666667,0,0,0,0,0,0,0,0,0,0,0,0,0,0,0,0,0,0,0,0,0,0,
Shell Bluff [22Lo530],Mammals,33.5,-88.36666666666666,0,0,0,0,0,0,0,0,0,0,0,0,0,0,0,0,0,0,0,0,4.0,0,
Morton Shell Mound [16IB3],Mammals,29.75,-91.75,0,0,0,0,0,0,0,0,0,0,0,0,0,0,0,0,0,0,0,0,0,0,
Twinsburg Rock Shelter,Mammals,41.11666666666667,-81.5,0,0,0,0,0,0,0,0,0,0,0,0,0,0,0,0,0,0,0,0,0,0,
Orleton Farm,Mammals,40.0,-83.36666666666666,0,0,0,0,0,0,0,0,0,0,0,0,0,0,0,0,0,0,0,0,0,0,
Smiley Rockshelter [5EL9],Mammals,39.36666666666667,-103.86666666666666,0,0,0,0,0,0,0,0,0,0,0,0,0,0,0,0,0,0,0,0,0,0,
Cedar Point [5EL8],Mammals,39.36666666666667,-103.86666666666666,0,0,0,0,0,0,0,0,0,0,0,0,0,0,0,0,0,0,0,0,0,0,
1LE21,Mammals,32.5,-85.11666666666666,0,0,0,0,0,0,0,0,0,0,0,0,0,0,0,0,0,0,0,0,0,0,
Two Deer [14BU55],Mammals,37.866666666666674,-96.86666666666666,0,0,0,0,0,0,0,0,0,0,0,0,0,0,0,0,0,0,0,0,0,0,
Milbourn [14BU25],Mammals,37.866666666666674,-96.86666666666666,0,0,0,0,0,0,0,0,0,0,0,0,0,0,0,0,0,4.0,0,0,0,0,
Boney Spring,Mammals,38.111944,-93.366944,0,0,0,0,0,2.0,0,0,2.0,0,0,0,0,0,0,0,0,0,0,0,0,0,
Trolinger Spring,Mammals,38.06388888888889,-93.34722222222223,0,0,0,0,0,0,0,0,0,0,0,0,0,0,0,0,0,0,0,0,0,0,
Klump Cave,Mammals,37.61666666666666,-89.75,0,0,0,0,0,0,0,0,0,0,0,0,0,0,0,0,0,0,0,0,0,0,
Larkin Ford Cave [Barrell Cave],Mammals,37.11666666666667,-91.36666666666666,0,0,0,0,0,0,0,0,0,0,0,0,0,0,0,0,0,0,0,0,0,0,
Merkel Cave [23WA61],Mammals,38.11666666666667,-91.11666666666666,0,0,0,0,0,0,0,0,0,0,0,0,0,0,0,0,0,0,0,0,0,0,
Phillips Spring [23HI216],Mammals,38.05972222222222,-93.32222222222224,0,0,0,0,0,0,0,0,0,0,0,0,0,0,2.0,0,0,0,6.0,4.0,2.0,2.0,
Aker [23PL43],Mammals,39.25,-94.75,0,0,0,0,0,0,0,0,0,0,0,0,0,0,0,0,0,0,0,0,0,0,
Shady Grove [23PO309],Mammals,37.5,-93.5,0,0,0,0,0,0,0,0,0,0,0,0,0,0,0,0,0,0,0,0,0,0,
Wet Hollow Cave [23FR143],Mammals,38.11666666666667,-91.11666666666666,0,0,0,0,0,0,0,0,0,0,0,0,0,0,0,0,0,0,0,0,0,0,
Bamford Farm,Mammals,41.488055555555555,-88.29722222222222,0,0,0,0,0,0,0,0,0,0,0,0,0,0,0,0,0,0,0,0,0,0,
Phillips Park,Mammals,41.7386111111111,-88.2975,0,0,0,0,0,0,0,0,0,0,0,0,0,0,0,0,0,0,0,0,0,0,
Range Community I,Mammals,38.51555555555555,-90.20083333333336,0,0,0,0,0,0,0,0,0,0,0,0,0,0,0,0,0,0,0,0,0,0,
Tooele,Mammals,40.5,-112.25,0,0,0,0,0,0,0,0,0,0,0,0,0,0,0,0,0,0,0,0,0,0,
Marysvale,Mammals,38.36666666666667,-112.11666666666666,0,0,0,0,0,0,0,0,0,0,0,0,0,0,0,0,0,0,0,0,0,0,
Ephraim [Witch's Knoll],Mammals,39.25,-111.5,0,0,0,0,0,0,0,0,0,0,0,0,0,0,0,0,0,0,0,0,0,0,
Lemont,Mammals,41.69138888888888,-87.98027777777777,0,0,0,0,0,0,0,0,0,0,0,0,0,0,0,0,0,0,0,0,0,0,
Skylight Cave,Mammals,36.0,-112.11666666666666,0,0,0,0,0,0,0,0,0,0,0,0,0,0,0,0,0,0,0,0,0,0,
Vossburg [21FA2],Mammals,43.75,-94.11666666666666,0,0,0,0,0,0,0,0,0,0,0,0,0,0,0,0,0,0,0,0,0,4.0,
24CA287,Mammals,47.5,-111.25,0,0,0,0,0,0,0,0,0,0,0,0,0,0,0,0,0,0,0,0,0,0,
Wall Ridge [13ML176],Mammals,41.11666666666667,-95.78333333333333,0,0,0,0,0,0,0,0,0,0,0,0,0,0,0,0,0,0,0,0,4.0,4.0,
Schaake Village,Mammals,47.0,-120.0,0,0,0,0,0,0,0,0,0,0,0,0,0,0,0,0,0,0,0,0,0,0,
45OK30,Mammals,48.36666666666667,-120.11666666666666,0,0,0,0,0,0,0,0,0,0,0,0,0,0,0,0,0,0,0,0,0,0,
Cedar Cave,Mammals,47.0,-120.0,0,0,0,0,0,0,0,0,0,0,0,0,0,0,0,0,0,0,0,0,0,0,
Duck Cave [45GR60],Mammals,46.866666666666674,-119.86666666666666,0,0,0,0,0,0,0,0,0,0,0,0,0,0,0,0,0,0,0,0,0,0,
Techumtas Island [Sweitzer's Island] [35UM17],Mammals,45.866666666666674,-119.11666666666666,0,0,0,0,0,0,0,0,0,0,0,0,0,0,0,0,0,0,0,0,0,0,
Wallula [45WW6],Mammals,46.0,-118.86666666666666,0,0,0,0,0,0,0,0,0,0,0,0,0,0,0,0,0,0,0,0,0,0,
Avey's Orchard [45DO176],Mammals,47.36666666666667,-120.25,0,0,0,0,0,0,0,0,0,0,0,0,0,0,0,0,0,0,0,0,0,0,
Yaquina Head [35LNC62],Mammals,44.61666666666666,-124.0,0,0,0,0,0,0,0,0,0,0,0,0,0,0,0,0,0,0,0,0,0,0,
Miller [45FR5],Mammals,46.25,-119.0,0,0,0,0,0,0,0,0,0,0,0,0,0,0,0,0,0,0,0,0,0,4.0,
Triple T Shelter [NY345],Mammals,39.0,-116.86666666666666,0,0,0,0,0,0,0,0,0,0,0,0,0,0,0,0,0,0,0,0,0,0,
Buchanan [13SR153],Mammals,42.0,-93.61666666666667,0,0,0,0,0,0,0,0,0,0,0,0,0,0,0,0,0,0,0,0,0,0,
Allen site [25FT50],Mammals,40.39205,-100.23365000000001,0,0,0,0,0,0,0,0,0,0,0,0,0,0,0,0,0,0,0,0,0,0,
Lilienthal Site,Mammals,41.6691666666667,-90.9069444444444,0,0,0,0,0,0,0,0,0,0,0,0,0,0,4.0,4.0,0,0,0,0,0,0,
