Site,Type,Latitude,Longitude,22000-21000,21000-20000,20000-19000,19000-18000,18000-17000,17000-16000,16000-15000,15000-14000,14000-13000,13000-12000,12000-11000,11000-10000,10000-9000,9000-8000,8000-7000,7000-6000,6000-5000,5000-4000,4000-3000,3000-2000,2000-1000,1000-present
Jones-Miller,Mammals,39.866666666666674,-102.11666666666666,0,0,0,0,0,0,0,0,0,0,0,0,0,0,0,0,0,0,0,0,0,0,
Moonshiner,Mammals,43.36666666666667,-112.61666666666667,0,0,0,0,0,0,0,0,0,0,0,0,0,0,0,0,0,0,0,0,0,0,
Bell Cave [48AB304],Mammals,41.75,-105.36666666666666,0,0,0,0,0,0,0,0,0,0,0,0,0,0,0,0,0,0,0,0,0,0,
New Paris #4 [Lloyd's Rock Hole],Mammals,40.08333333333333,-78.65,0,0,0,0,0,0,0,0,0,0,128.0,0,0,0,0,0,0,0,0,0,0,0,
Clark's Cave,Mammals,38.0861111111111,-79.65694444444445,0,0,0,0,0,0,0,0,0,0,0,0,0,0,0,0,0,0,0,0,0,0,
Wilson Butte Cave [10Je6],Mammals,42.766666666666666,-114.21666666666664,0,0,0,0,0,0,0,0,0,0,0,0,0,0,0,0,0,0,0,0,0,0,
Samwell Cave,Mammals,40.916911,-122.23787,0,0,0,0,0,0,0,0,0,0,0,0,0,0,0,0,0,0,0,0,0,0,
Bornick [47MQ65],Mammals,43.8,-89.25,0,0,0,0,0,0,0,0,0,0,0,0,0,0,0,0,0,0,0,0,0,0,
Middle Butte Cave,Mammals,43.36666666666667,-112.61666666666667,0,0,0,0,0,0,0,0,0,0,0,0,0,0,0,0,3.0,0,0,0,0,3.0,
Crystal Ball Cave,Mammals,39.0,-113.0,0,0,0,0,0,0,0,0,0,0,0,0,0,0,0,0,0,0,0,0,0,0,
Eagle Cave [DjPp-100],Mammals,49.63611111111113,-114.64,0,0,0,0,0,0,0,0,0,0,0,0,0,0,0,0,0,0,0,0,0,0,
Back Creek Cave 1,Mammals,38.06666666666666,-79.89166666666668,0,0,0,0,0,0,0,0,0,0,0,0,0,0,0,0,0,0,0,0,0,0,
January Cave [EbPp-Vp],Mammals,50.1883333333333,-114.518333333333,0,0,0,0,0,0,0,0,0,0,0,0,0,0,0,0,0,0,0,0,0,0,
Juntunen [20MK1],Mammals,45.81666666666667,-84.58333333333333,0,0,0,0,0,0,0,0,0,0,0,0,0,0,0,0,0,0,0,0,1.0,0,
North Cove [25HN164],Mammals,40.11666666666667,-99.36666666666666,0,0,0,0,0,0,0,2.0,0,2.0,0,0,0,0,0,0,0,0,0,0,0,0,
Hidden Cave [NV-Ch-16 (Berkeley)] [26CH16],Mammals,39.36666666666667,-118.61666666666667,0,0,0,0,0,0,0,0,0,0,0,0,0,0,0,0,0,0,0,0,0,0,
Schulze Cave,Mammals,30.25,-99.86666666666666,0,0,0,0,0,0,0,0,0,0,0,0,0,0,0,0,0,0,0,0,0,0,
Agate Basin [48NO201],Mammals,43.36666666666667,-104.06666666666668,0,0,0,0,0,0,0,0,0,0,0,9.0,0,0,0,0,0,0,0,0,0,0,
Medicine Lodge Creek [48BH499],Mammals,44.25,-107.5,0,0,0,0,0,0,0,0,0,0,0,0,0,0,0,0,0,0,0,0,0,0,
Horner [48PA29],Mammals,44.5,-109.0,0,0,0,0,0,0,0,0,0,0,0,1.0,1.0,0,0,0,0,0,0,0,0,0,
River Bend [48NA202],Mammals,42.75,-106.36666666666666,0,0,0,0,0,0,0,0,0,0,0,0,0,0,0,0,0,0,0,0,0,189.0,
Scott [34LF11],Mammals,34.866666666666674,-94.61666666666667,0,0,0,0,0,0,0,0,0,0,0,0,0,0,0,0,0,0,0,0,6.0,0,
Robert,Mammals,37.016666666666666,-100.36666666666666,0,0,0,0,0,0,0,0,0,0,0,0,0,0,0,0,0,0,0,0,0,0,
Trapshoot,Mammals,39.11666666666667,-99.25,0,0,0,0,0,0,0,0,0,0,0,0,0,0,0,0,0,0,0,0,0,0,
Mitchell [39DV2],Mammals,43.71666666666667,-98.03333333333333,0,0,0,0,0,0,0,0,0,0,0,0,0,0,0,0,0,0,0,0,21.0,21.0,
Lower Grand [Davis] [39CO14],Mammals,45.575,-100.48333333333336,0,0,0,0,0,0,0,0,0,0,0,0,0,0,0,0,0,0,0,0,0,122.0,
Travis I [39CO213],Mammals,45.57722222222223,-100.49666666666668,0,0,0,0,0,0,0,0,0,0,0,0,0,0,0,0,0,0,0,0,0,63.0,
Helb [39CA208],Mammals,45.785833333333336,-100.3486111111111,0,0,0,0,0,0,0,0,0,0,0,0,0,0,0,0,0,0,0,0,0,390.0,
Jake White Bull [39CO6],Mammals,45.75,-100.36666666666666,0,0,0,0,0,0,0,0,0,0,0,0,0,0,0,0,0,0,0,0,0,6.0,
Oakwood Lakes [39BK7],Mammals,44.36666666666667,-96.86666666666666,0,0,0,0,0,0,0,0,0,0,0,0,0,0,0,0,0,0,0,2.0,2.0,3.0,
Walth Bay [39WW203],Mammals,45.4125,-100.275,0,0,0,0,0,0,0,0,0,0,0,0,0,0,0,0,0,0,0,0,0,141.0,
Mowry Bluff [25FT35],Mammals,40.37722222222222,-100.22,0,0,0,0,0,0,0,0,0,0,0,0,0,0,0,0,0,0,0,0,0,2.0,
Schmidt [25HW301],Mammals,41.25,-98.5,0,0,0,0,0,0,0,0,0,0,0,0,0,0,0,0,0,0,0,0,0,33.0,
White Buffalo Robe [32ME7],Mammals,47.25,-101.36666666666666,0,0,0,0,0,0,0,0,0,0,0,0,0,0,0,0,0,0,0,0,0,50.0,
Cross Ranch [32OL14],Mammals,47.1963888888889,-100.99638888888887,0,0,0,0,0,0,0,0,0,0,0,0,0,0,0,0,0,0,0,0,0,2.0,
Mondrian Tree [32MZ58],Mammals,47.95,-103.9,0,0,0,0,0,0,0,0,0,0,0,0,0,0,0,0,0,6.0,15.0,14.0,0,8.0,
Poly [32ME407],Mammals,47.25,-101.36666666666666,0,0,0,0,0,0,0,0,0,0,0,0,0,0,0,0,0,0,0,0,0,3.0,
Youess [32ME415],Mammals,47.25,-101.36666666666666,0,0,0,0,0,0,0,0,0,0,0,0,0,0,0,0,0,0,0,0,0,2.0,
Forkorner [32ME413],Mammals,47.25,-101.36666666666666,0,0,0,0,0,0,0,0,0,0,0,0,0,0,0,0,0,0,0,0,0,4.0,
Pretty Point [32OL8],Mammals,47.158333333333346,-100.97027777777777,0,0,0,0,0,0,0,0,0,0,0,0,0,0,0,0,0,0,0,0,0,0,
Mandan Lake [32OL21],Mammals,47.25,-101.17555555555552,0,0,0,0,0,0,0,0,0,0,0,0,0,0,0,0,0,0,0,0,0,0,
Mahaha [32OL22],Mammals,47.23888888888889,-101.24166666666665,0,0,0,0,0,0,0,0,0,0,0,0,0,0,0,0,0,0,0,0,0,0,
Ft. Clark [32ME2],Mammals,47.25333333333333,-101.27416666666667,0,0,0,0,0,0,0,0,0,0,0,0,0,0,0,0,0,0,0,0,0,0,
Fence Cave Local Fauna,Mammals,42.70416666666666,-91.41388888888888,0,0,0,0,0,0,0,0,0,0,0,0,0,0,0,0,0,0,0,0,0,0,
State School [13ML155],Mammals,41.0,-95.75,0,0,0,0,0,0,0,0,0,0,0,0,0,0,0,0,0,0,0,0,0,4.0,
Johnson-3 [13ML130],Mammals,41.034444444444446,-95.75333333333336,0,0,0,0,0,0,0,0,0,0,0,0,0,0,0,0,0,0,0,0,0,5.0,
Johnson-1 [13ML128],Mammals,41.034444444444446,-95.75333333333336,0,0,0,0,0,0,0,0,0,0,0,0,0,0,0,0,0,0,0,0,0,2.0,
KuhL-4 [13ML139],Mammals,41.047222222222224,-97.79027777777777,0,0,0,0,0,0,0,0,0,0,0,0,0,0,0,0,0,0,0,0,0,3.0,
KuhL-3 [13ML138],Mammals,41.0475,-97.78833333333334,0,0,0,0,0,0,0,0,0,0,0,0,0,0,0,0,0,0,0,0,1.0,0,
KuhL-1 [13ML126],Mammals,41.346944444444446,-95.78944444444443,0,0,0,0,0,0,0,0,0,0,0,0,0,0,0,0,0,0,0,0,0,6.0,
Gamble [13ML124],Mammals,41.0,-95.75,0,0,0,0,0,0,0,0,0,0,0,0,0,0,0,0,0,0,0,0,0,1.0,
Garrett Farm,Mammals,40.96666666666666,-95.7,0,0,0,0,0,0,0,0,0,0,0,0,0,0,0,0,0,0,1.0,0,0,0,
Pleasant Ridge,Mammals,40.96666666666666,-95.7,0,0,0,0,0,0,0,0,0,0,0,0,0,0,0,0,0,0,0,0,2.0,0,
Brewster [13CK15],Mammals,42.81666666666667,-95.60000000000002,0,0,0,0,0,0,0,0,0,0,0,0,0,0,0,0,0,0,0,0,6.0,6.0,
Willard Cave,Mammals,42.63333333333334,-91.29722222222222,0,0,0,0,0,0,0,0,0,0,0,0,0,0,0,0,0,0,10.0,0,10.0,0,
Milford [13DK1],Mammals,43.25,-95.11666666666666,0,0,0,0,0,0,0,0,0,0,0,0,0,0,0,0,0,0,0,0,0,3.0,
Cherokee Sewer [13CK405],Mammals,42.7225,-95.72333333333334,0,0,0,0,0,0,0,0,0,0,0,1.0,0,4.0,0,4.0,0,0,0,0,0,0,
Montana Ice Cave [KU-MT-41],Mammals,46.75,-109.0,0,0,0,0,0,0,0,0,0,0,0,0,0,0,0,0,0,0,0,0,0,0,
Shield Trap [24CB91],Mammals,45.11666666666667,-108.25,0,0,0,0,0,0,0,0,0,0,0,0,0,0,0,0,0,0,0,0,0,0,
False Cougar Cave [24CB84],Mammals,45.11666666666667,-108.25,0,0,0,0,0,0,0,0,0,0,0,0,0,0,0,0,0,0,0,0,0,0,
Morse Creek #1,Mammals,46.61666666666666,-113.11666666666666,0,0,0,0,0,0,0,0,0,0,0,0,0,0,0,0,0,0,0,0,0,0,
Dotsero [5EA128],Mammals,39.61666666666666,-107.0,0,0,0,0,0,0,0,0,0,0,0,0,0,0,0,0,0,0,0,0,0,0,
Mug House,Mammals,37.11666666666667,-108.5,0,0,0,0,0,0,0,0,0,0,0,0,0,0,0,0,0,0,0,0,0,0,
Tesequite Canyon,Mammals,36.866666666666674,-102.86666666666666,0,0,0,0,0,0,0,0,0,0,0,0,0,0,0,0,0,0,0,0,0,0,
Fowlkes Cave,Mammals,31.0,-104.11666666666666,0,0,0,0,0,0,0,0,0,0,0,0,0,0,0,0,0,0,0,0,0,0,
Beaver Creek Shelter [39CU779],Mammals,43.583333333333336,-103.5,0,0,0,0,0,0,0,0,0,0,0,0,0,0,0,0,0,0,0,0,0,0,
French [22HO565],Mammals,33.25,-90.11666666666666,0,0,0,0,0,0,0,0,0,0,0,0,0,0,0,0,0,0,0,0,0,0,
Back Creek Cave #2,Mammals,38.06666666666666,-79.89166666666668,0,0,0,0,0,0,0,0,0,0,0,0,0,0,0,0,0,0,0,0,0,0,
Walker-Hooper [47GL65],Mammals,43.5,-89.0,0,0,0,0,0,0,0,0,0,0,0,0,0,0,0,0,0,0,0,0,0,0,
Dirty Shame Rockshelter [35ML65],Mammals,42.44333333333332,-117.34333333333336,0,0,0,0,0,0,0,0,0,0,0,0,0,0,0,0,0,0,0,0,0,0,
Jeppson [West Richland] [CO151],Mammals,46.3,-119.35,0,0,0,0,0,0,0,0,0,0,0,0,0,0,0,0,0,0,0,0,0,0,
Marmes Rockshelter [45FR50],Mammals,46.61666666666666,-118.2,0,0,0,0,0,0,0,0,0,0,0,0,0,0,0,0,0,0,0,0,0,0,
Mormon Mountain Cave [V6702A],Mammals,37.0,-115.0,0,0,0,0,0,0,0,0,0,0,0,0,0,0,0,0,0,0,0,0,0,0,
Silver Creek,Mammals,40.72083333333334,-111.50277777777778,0,0,0,0,0,0,0,0,0,0,0,0,0,0,0,0,0,0,0,0,0,0,
Hogup Cave,Mammals,41.36666666666667,-113.11666666666666,0,0,0,0,0,0,0,0,0,0,0,0,0,1.0,2.0,2.0,0,1.0,2.0,2.0,0,0,
Kennewick Roadcut [Kennewick] [45BN265],Mammals,46.0,-119.11666666666666,0,0,0,0,0,0,0,0,0,0,0,0,0,0,0,0,0,0,0,0,0,0,
45AD2,Mammals,47.0,-118.36666666666666,0,0,0,0,0,0,0,0,0,0,0,0,0,0,0,0,0,0,0,0,0,0,
Timothy's Village [Alpaweyma] [45AS82],Mammals,46.36666666666667,-117.11666666666666,0,0,0,0,0,0,0,0,0,0,0,0,0,0,0,0,0,0,0,0,0,0,
Last Supper Cave [26HU102],Mammals,41.61666666666666,-119.11666666666666,0,0,0,0,0,0,0,0,0,0,0,0,0,0,0,0,0,0,0,0,0,0,
Hanging Rock Shelter,Mammals,41.5,-119.36666666666666,0,0,0,0,0,0,0,0,0,0,0,0,0,0,0,0,0,0,0,0,0,0,
Papago Springs Cave,Mammals,31.616666666666667,-110.61666666666667,0,0,0,0,0,0,0,0,0,0,0,0,0,0,0,0,0,0,0,0,0,0,
Burnet Cave,Mammals,32.36666666666667,-104.75,0,0,0,0,0,0,0,0,0,0,0,0,0,0,0,0,0,0,0,0,0,0,
Guadalupe Ruin,Mammals,35.5,-107.11666666666666,0,0,0,0,0,0,0,0,0,0,0,0,0,0,0,0,0,0,0,0,0,0,
U-Bar Cave [LA5689],Mammals,31.4745,-108.4337,0,0,0,0,0,0,0,0,0,0,0,0,0,0,0,0,0,0,0,0,0,0,
Ezra's Retreat [26HU300],Mammals,41.5,-117.11666666666666,0,0,0,0,0,0,0,0,0,0,0,0,0,0,0,0,0,0,0,0,0,0,
Granite Point [45WT41],Mammals,46.61666666666666,-117.36666666666666,0,0,0,0,0,0,0,0,0,0,0,0,0,0,0,0,0,0,0,0,0,0,
LA 12072,Mammals,36.36666666666667,-106.75,0,0,0,0,0,0,0,0,0,0,0,0,0,0,0,0,0,0,0,0,0,10.0,
Umpqua/Eden [35DO83],Mammals,43.61666666666666,-124.11666666666666,0,0,0,0,0,0,0,0,0,0,0,0,0,0,0,0,0,0,0,0,0,0,
James Creek Shelter [26EU843],Mammals,40.75,-116.25,0,0,0,0,0,0,0,0,0,0,0,0,0,0,0,0,0,0,0,0,0,0,
Grasshopper Pueblo [P:14:1],Mammals,34.08333333333333,-110.66666666666669,0,0,0,0,0,0,0,0,0,0,0,0,0,0,0,0,0,0,0,0,0,0,
LA 12054,Mammals,36.25,-106.75,0,0,0,0,0,0,0,0,0,0,0,0,0,0,0,0,0,0,0,0,0,0,
LA 12055,Mammals,36.25,-106.75,0,0,0,0,0,0,0,0,0,0,0,0,0,0,0,0,0,0,0,0,0,0,
LA 12056,Mammals,36.25,-106.75,0,0,0,0,0,0,0,0,0,0,0,0,0,0,0,0,0,0,0,0,0,0,
LA 12062,Mammals,36.5,-106.75,0,0,0,0,0,0,0,0,0,0,0,0,0,0,0,0,0,0,0,0,0,0,
LA 12063,Mammals,36.5,-106.75,0,0,0,0,0,0,0,0,0,0,0,0,0,0,0,0,0,0,0,0,0,0,
LA 12066,Mammals,36.36666666666667,-106.75,0,0,0,0,0,0,0,0,0,0,0,0,0,0,0,0,0,0,0,0,0,0,
LA 12070,Mammals,36.36666666666667,-106.75,0,0,0,0,0,0,0,0,0,0,0,0,0,0,0,0,0,0,0,0,0,0,
LA 12071,Mammals,36.36666666666667,-106.75,0,0,0,0,0,0,0,0,0,0,0,0,0,0,0,0,0,0,0,0,0,0,
Costeau Pit [LACM 65129],Mammals,33.61666666666666,-117.61666666666667,0,0,0,0,0,0,0,0,0,0,0,0,0,0,0,0,0,0,0,0,0,0,
Newport Bay Mesa [LACM 1066],Mammals,33.583333333333336,-117.86666666666666,0,0,0,0,0,0,0,0,0,0,0,0,0,0,0,0,0,0,0,0,0,0,
Centennial Parkway Site [SBCM 2.6.1],Mammals,36.25,-115.11666666666666,0,0,0,0,0,0,0,0,0,0,0,0,0,0,0,0,0,0,0,0,0,0,
Daisy Cave [SMI-261],Mammals,34.03333333333334,-120.3,0,0,0,0,0,0,0,0,0,0,0,0,0,0,0,0,0,0,0,0,0,0,
Stillwater Marsh Site 26CH1048,Mammals,39.75,-118.61666666666667,0,0,0,0,0,0,0,0,0,0,0,0,0,0,0,0,0,0,0,0,0,0,
Chief Joseph Dam Site 45OK4,Mammals,48.11666666666667,-119.11666666666666,0,0,0,0,0,0,0,0,0,0,0,0,0,0,0,0,0,0,0,0,0,0,
Chief Joseph Dam Site 45OK250,Mammals,48.11666666666667,-119.11666666666666,0,0,0,0,0,0,0,0,0,0,0,0,0,0,0,0,0,0,0,0,0,0,
Chief Joseph Dam Site 45DO204,Mammals,48.11666666666667,-119.25,0,0,0,0,0,0,0,0,0,0,0,0,0,0,0,0,0,0,0,2.0,0,2.0,
Chief Joseph Dam Site 45OK18,Mammals,48.0,-119.36666666666666,0,0,0,0,0,0,0,0,0,0,0,0,0,0,0,0,0,0,0,0,0,0,
Chief Joseph Dam Site 45DO326,Mammals,48.0,-119.36666666666666,0,0,0,0,0,0,0,0,0,0,0,0,0,0,0,0,0,0,0,0,0,0,
Chief Joseph Dam Site 45DO282,Mammals,48.0,-119.36666666666666,0,0,0,0,0,0,0,0,0,0,0,0,0,0,0,0,0,0,0,0,0,0,
Chief Joseph Dam Site 45OK258,Mammals,48.11666666666667,-119.11666666666666,0,0,0,0,0,0,0,0,0,0,0,0,0,0,0,0,0,0,0,0,0,0,
Chief Joseph Dam Site 45OK11,Mammals,48.11666666666667,-119.11666666666666,0,0,0,0,0,0,0,0,0,0,0,0,0,0,0,0,0,0,0,0,0,0,
Chief Joseph Dam Site 45OK2,Mammals,48.11666666666667,-119.0,0,0,0,0,0,0,0,0,0,0,0,0,0,0,0,0,0,0,0,0,0,0,
Chief Joseph Dam Site 45OK2A,Mammals,48.11666666666667,-119.0,0,0,0,0,0,0,0,0,0,0,0,0,0,0,0,0,0,0,0,0,0,0,
Chief Joseph Dam Site 45DO211,Mammals,48.0,-119.0,0,0,0,0,0,0,0,0,0,0,0,0,0,0,0,0,0,0,0,0,0,0,
Chief Joseph Dam Site 45DO285,Mammals,48.0,-119.0,0,0,0,0,0,0,0,0,0,0,0,0,0,0,0,0,0,0,0,0,0,0,
Chief Joseph Dam Site 45DO214,Mammals,48.0,-119.0,0,0,0,0,0,0,0,0,0,0,0,0,0,0,0,0,0,0,0,0,4.0,0,
Chief Joseph Dam Site 45DO242,Mammals,48.0,-119.11666666666666,0,0,0,0,0,0,0,0,0,0,0,0,0,0,0,0,0,0,0,0,0,0,
Chief Joseph Dam Site 45DO243,Mammals,48.0,-119.11666666666666,0,0,0,0,0,0,0,0,0,0,0,0,0,0,0,0,0,0,0,0,0,0,
Layser Cave [45LE223],Mammals,46.36666666666667,-121.75,0,0,0,0,0,0,0,0,0,0,0,0,0,0,0,0,0,0,0,0,0,0,
Bancos Village [LA 4380],Mammals,36.866666666666674,-107.36666666666666,0,0,0,0,0,0,0,0,0,0,0,0,0,0,0,0,0,0,0,0,0,1.0,
San Miguel Island Site SMI-261A [SMI-261A],Mammals,34.03333333333334,-120.3,0,0,0,0,0,0,0,0,0,0,0,0,0,0,0,0,0,0,0,0,0,0,
Cascadia Cave [35LIN11],Mammals,44.36666666666667,-122.36666666666666,0,0,0,0,0,0,0,0,0,0,0,0,0,0,2.0,0,0,0,0,0,0,0,
Evans Mound,Mammals,37.75,-112.86666666666666,0,0,0,0,0,0,0,0,0,0,0,0,0,0,0,0,0,0,0,0,0,3.0,
Pyramid Lake Fishway Site 26WA1020,Mammals,39.75,-119.36666666666666,0,0,0,0,0,0,0,0,0,0,0,0,0,0,0,0,0,0,0,0,0,0,
Mission of St. Ignace,Mammals,45.75,-84.75,0,0,0,0,0,0,0,0,0,0,0,0,0,0,0,0,0,0,0,0,0,0,
Rehbein I [47RI81],Mammals,43.5,-90.61666666666667,0,0,0,0,0,0,0,0,0,0,0,0,0,0,0,0,0,0,0,0,0,0,
Pammel Creek [47LC61],Mammals,43.75,-91.11666666666666,0,0,0,0,0,0,0,0,0,0,0,0,0,0,0,0,0,0,0,0,0,0,
Hollidaysburg Fissure,Mammals,40.36666666666667,-78.36666666666666,0,0,0,0,0,0,0,0,0,0,0,0,0,0,0,0,0,0,0,0,0,0,
Lost River Sink,Mammals,43.016666666666666,-89.85000000000002,0,0,0,0,0,0,0,0,0,0,0,0,0,0,0,0,0,0,14.0,14.0,0,0,
Sheriden Pit [Indian Trail Caverns],Mammals,40.866666666666674,-83.36666666666666,0,0,0,0,0,0,0,0,0,0,0,0,0,0,0,0,0,0,0,0,0,0,
Bates [Grn. 1],Mammals,42.297222222222224,-75.795,0,0,0,0,0,0,0,0,0,0,0,0,0,0,0,0,0,0,0,0,0,0,
Cole Quarry Archaic Site [Farrel Farm],Mammals,43.0,-77.61666666666667,0,0,0,0,0,0,0,0,0,0,0,0,0,0,0,0,0,0,1.0,0,0,0,
Krill Cave,Mammals,41.18333333333333,-81.67166666666668,0,0,0,0,0,0,0,0,0,0,0,0,0,0,0,0,0,0,0,8.0,0,2.0,
Bear Flat  Peace River  NE British Columbia,Mammals,56.2808333333333,-121.2275,0,0,0,0,0,0,0,0,0,0,0,0,0,0,0,0,0,0,0,0,0,0,
Samwel Cave,Mammals,40.9171,-122.2318,0,0,0,0,0,0,0,0,0,0,0,0,0,0,0,0,0,0,0,0,0,0,
