Site,Type,Latitude,Longitude,22000-21000,21000-20000,20000-19000,19000-18000,18000-17000,17000-16000,16000-15000,15000-14000,14000-13000,13000-12000,12000-11000,11000-10000,10000-9000,9000-8000,8000-7000,7000-6000,6000-5000,5000-4000,4000-3000,3000-2000,2000-1000,1000-present
Jones-Miller,Mammals,39.866666666666674,-102.11666666666666,0,0,0,0,0,0,0,0,0,0,0,0,0,0,0,0,0,0,0,0,0,0,
Blackwater Draw Loc. 1,Mammals,34.28333333333334,-103.31666666666666,0,0,0,0,0,0,0,0,0,0,0,0,0,0,0,0,0,0,0,0,0,0,
Canyon City Club Cave [A251],Mammals,35.0,-101.86666666666666,0,0,0,0,0,0,0,0,0,0,0,0,0,0,0,0,0,0,0,0,0,0,
New Paris #4 [Lloyd's Rock Hole],Mammals,40.08333333333333,-78.65,0,0,0,0,0,0,0,0,0,0,11.0,0,0,0,0,0,0,0,0,0,0,0,
Clark's Cave,Mammals,38.0861111111111,-79.65694444444445,0,0,0,0,0,0,0,0,0,0,0,0,0,0,0,0,0,0,0,0,0,0,
Back Creek Cave 1,Mammals,38.06666666666666,-79.89166666666668,0,0,0,0,0,0,0,0,0,0,0,0,0,0,0,0,0,0,0,0,0,0,
Ripplemead Quarry,Mammals,37.25,-80.86666666666666,0,0,0,0,0,0,0,0,0,0,0,0,0,0,0,0,0,0,0,0,0,0,
Meadowcroft Rockshelter [36WH297],Mammals,40.28666666666667,-80.48333333333335,0,0,0,0,0,0,0,0,0,0,0,0,0,0,0,0,0,0,0,0,0,0,
Howard Ranch,Mammals,34.36666666666667,-99.75,0,0,0,0,0,0,0,0,0,0,0,0,0,0,0,0,0,0,0,0,0,0,
Barton Road [41TV87],Mammals,30.25,-97.76666666666665,0,0,0,0,0,0,0,0,0,0,0,0,0,0,0,0,0,0,0,0,0,0,
Miller's Cave,Mammals,30.586666666666662,-98.63666666666668,0,0,0,0,0,0,0,0,0,0,0,0,0,0,0,0,0,0,0,0,0,0,
Schulze Cave,Mammals,30.25,-99.86666666666666,0,0,0,0,0,0,0,0,0,0,0,0,0,0,0,0,0,0,0,0,0,0,
Robert,Mammals,37.016666666666666,-100.36666666666666,0,0,0,0,0,0,0,0,0,0,0,0,0,0,0,0,0,0,0,0,0,0,
Jake White Bull [39CO6],Mammals,45.75,-100.36666666666666,0,0,0,0,0,0,0,0,0,0,0,0,0,0,0,0,0,0,0,0,0,22.0,
Oakwood Lakes [39BK7],Mammals,44.36666666666667,-96.86666666666666,0,0,0,0,0,0,0,0,0,0,0,0,0,0,0,0,0,0,0,1.0,1.0,0,
25FT17,Mammals,40.37777777777778,-100.2125,0,0,0,0,0,0,0,0,0,0,0,0,0,0,0,0,0,0,0,0,0,1.0,
Fence Cave Local Fauna,Mammals,42.70416666666666,-91.41388888888888,0,0,0,0,0,0,0,0,0,0,0,0,0,0,0,0,0,0,0,0,0,0,
State School [13ML155],Mammals,41.0,-95.75,0,0,0,0,0,0,0,0,0,0,0,0,0,0,0,0,0,0,0,0,0,5.0,
Institution-1 [13ML132],Mammals,41.030833333333334,-95.73027777777779,0,0,0,0,0,0,0,0,0,0,0,0,0,0,0,0,0,0,0,0,0,1.0,
13ML131,Mammals,41.0,-95.75,0,0,0,0,0,0,0,0,0,0,0,0,0,0,0,0,0,0,0,0,1.0,1.0,
Johnson-3 [13ML130],Mammals,41.034444444444446,-95.75333333333336,0,0,0,0,0,0,0,0,0,0,0,0,0,0,0,0,0,0,0,0,0,1.0,
13ML121,Mammals,41.0,-95.75,0,0,0,0,0,0,0,0,0,0,0,0,0,0,0,0,0,0,0,0,1.0,1.0,
KuhL-4 [13ML139],Mammals,41.047222222222224,-97.79027777777777,0,0,0,0,0,0,0,0,0,0,0,0,0,0,0,0,0,0,0,0,0,1.0,
KuhL-3 [13ML138],Mammals,41.0475,-97.78833333333334,0,0,0,0,0,0,0,0,0,0,0,0,0,0,0,0,0,0,0,0,1.0,0,
KuhL-2 [13ML136],Mammals,41.34722222222223,-95.79,0,0,0,0,0,0,0,0,0,0,0,0,0,0,0,0,0,0,0,0,0,1.0,
KuhL-1 [13ML126],Mammals,41.346944444444446,-95.78944444444443,0,0,0,0,0,0,0,0,0,0,0,0,0,0,0,0,0,0,0,0,0,2.0,
Gamble [13ML124],Mammals,41.0,-95.75,0,0,0,0,0,0,0,0,0,0,0,0,0,0,0,0,0,0,0,0,0,3.0,
Sweet Jane [13BN279],Mammals,42.11666666666667,-93.86666666666666,0,0,0,0,0,0,0,0,0,0,0,0,0,0,0,12.0,0,0,12.0,0,0,0,
Garrett Farm,Mammals,40.96666666666666,-95.7,0,0,0,0,0,0,0,0,0,0,0,0,0,0,0,0,0,0,5.0,0,0,0,
Pleasant Ridge,Mammals,40.96666666666666,-95.7,0,0,0,0,0,0,0,0,0,0,0,0,0,0,0,0,0,0,0,0,10.0,0,
Rainbow [13PM91],Mammals,42.61666666666666,-96.25,0,0,0,0,0,0,0,0,0,0,0,0,0,0,0,0,0,0,0,0,2.0,0,
Willard Cave,Mammals,42.63333333333334,-91.29722222222222,0,0,0,0,0,0,0,0,0,0,0,0,0,0,0,0,0,0,7.0,0,7.0,0,
Cherokee Sewer [13CK405],Mammals,42.7225,-95.72333333333334,0,0,0,0,0,0,0,0,0,0,0,3.0,0,11.0,0,14.0,0,0,0,0,0,0,
Dye Creek,Mammals,33.61666666666666,-97.5,0,0,0,0,0,0,0,0,0,0,0,0,0,0,0,0,0,0,0,0,0,0,
Fowlkes Cave,Mammals,31.0,-104.11666666666666,0,0,0,0,0,0,0,0,0,0,0,0,0,0,0,0,0,0,0,0,0,0,
Lange-Ferguson [39SH33],Mammals,43.25,-102.75,0,0,0,0,0,0,0,0,0,0,4.0,4.0,0,0,0,0,0,0,0,0,0,0,
Beaver Creek Shelter [39CU779],Mammals,43.583333333333336,-103.5,0,0,0,0,0,0,0,0,0,0,0,0,0,0,0,0,0,0,0,0,0,0,
Back Creek Cave #2,Mammals,38.06666666666666,-79.89166666666668,0,0,0,0,0,0,0,0,0,0,0,0,0,0,0,0,0,0,0,0,0,0,
Callahan-Thompson [23MI71],Mammals,36.61666666666666,-89.25,0,0,0,0,0,0,0,0,0,0,0,0,0,0,0,0,0,0,0,0,0,0,
Dry Cave,Mammals,32.37361111111111,-104.48194444444442,0,0,0,0,0,0,0,0,0,0,0,0,0,0,0,0,0,0,0,0,0,0,
Grasshopper Pueblo [P:14:1],Mammals,34.08333333333333,-110.66666666666669,0,0,0,0,0,0,0,0,0,0,0,0,0,0,0,0,0,0,0,0,0,0,
LA 12056,Mammals,36.25,-106.75,0,0,0,0,0,0,0,0,0,0,0,0,0,0,0,0,0,0,0,0,0,0,
LA 12070,Mammals,36.36666666666667,-106.75,0,0,0,0,0,0,0,0,0,0,0,0,0,0,0,0,0,0,0,0,0,0,
Burnt Bluff Cave [B-95],Mammals,45.68333333333333,-86.73333333333333,0,0,0,0,0,0,0,0,0,0,0,0,0,0,0,0,0,0,0,0,0,0,
Mossville,Mammals,40.82305555555556,-89.58611111111111,0,0,0,0,0,0,0,0,0,0,0,0,0,0,0,0,0,0,0,0,0,0,
Wall Ridge [13ML176],Mammals,41.11666666666667,-95.78333333333333,0,0,0,0,0,0,0,0,0,0,0,0,0,0,0,0,0,0,0,0,4.0,4.0,
Lilienthal Site,Mammals,41.6691666666667,-90.9069444444444,0,0,0,0,0,0,0,0,0,0,0,0,0,0,0,0,0,0,0,0,0,0,
