Site,Type,Latitude,Longitude,22000-21000,21000-20000,20000-19000,19000-18000,18000-17000,17000-16000,16000-15000,15000-14000,14000-13000,13000-12000,12000-11000,11000-10000,10000-9000,9000-8000,8000-7000,7000-6000,6000-5000,5000-4000,4000-3000,3000-2000,2000-1000,1000-present
Canyon City Club Cave [A251],Mammals,35.0,-101.86666666666666,0,0,0,0,0,0,0,0,0,0,0,0,0,0,0,0,0,0,0,0,0,0,
Lubbock Lake [41LU1],Mammals,33.62041666666667,-101.89208333333336,0,0,0,0,0,0,0,0,0,0,0,0,0,0,0,0,0,0,0,0,0,0,
Little Box Elder Cave [48CO287],Mammals,42.61666666666666,-105.61666666666667,0,0,0,0,0,0,0,0,0,0,0,0,0,0,0,0,0,0,0,0,0,0,
Natural Trap Cave,Mammals,44.866666666666674,-108.11666666666666,0,0,0,0,0,0,0,0,0,0,0,0,0,0,0,0,0,0,0,0,0,0,
Smith Creek Cave [26WP46],Mammals,39.333333333333336,-114.08333333333331,0,0,0,0,0,0,0,0,0,0,0,0,0,0,0,0,0,0,0,0,0,0,
Hidden Cave [NV-Ch-16 (Berkeley)] [26CH16],Mammals,39.36666666666667,-118.61666666666667,0,0,0,0,0,0,0,0,0,0,0,0,0,0,0,0,0,0,0,0,0,0,
Bonfire Shelter [41VV218],Mammals,29.816666666666663,-101.55,0,0,0,0,0,0,0,0,0,0,0,0,0,0,0,0,0,0,0,0,0,0,
Howard Ranch,Mammals,34.36666666666667,-99.75,0,0,0,0,0,0,0,0,0,0,0,0,0,0,0,0,0,0,0,0,0,0,
Cueva Quebrada [41VV162A],Mammals,29.733333333333334,-101.4,0,0,0,0,0,0,0,0,0,0,0,0,0,0,0,0,0,0,0,0,0,0,
Baker Cave [41VV213],Mammals,29.983333333333334,-101.1,0,0,0,0,0,0,0,0,0,0,0,0,0,0,0,0,0,0,0,0,0,3.0,
Hinds Cave [41VV456],Mammals,29.89138888888889,-101.44,0,0,0,0,0,0,0,0,0,0,0,0,0,0,0,0,0,0,0,0,0,0,
Prospects Shelter [48BH305],Mammals,44.866666666666674,-108.11666666666666,0,0,0,0,0,0,0,0,0,0,0,0,0,0,0,0,0,0,0,0,0,0,
Copperhead Cave [34OS85],Mammals,36.61666666666666,-96.36666666666666,0,0,0,0,0,0,0,0,0,0,0,0,0,0,0,0,0,0,0,0,0,0,
Big Hawk Shelter [34OS114],Mammals,36.36666666666667,-96.36666666666666,0,0,0,0,0,0,0,0,0,0,0,0,0,0,0,0,0,0,0,0,0,0,
Cedar Creek [34OS98],Mammals,36.61666666666666,-96.36666666666666,0,0,0,0,0,0,0,0,0,0,0,0,0,0,0,0,0,0,0,0,0,0,
Solomon River 14ML15,Mammals,39.36666666666667,-98.11666666666666,0,0,0,0,0,0,0,0,0,0,0,0,0,0,0,0,0,0,0,0,0,2.0,
Solomon River 14ML5,Mammals,39.49444444444445,-98.4583333333333,0,0,0,0,0,0,0,0,0,0,0,0,0,0,0,0,0,0,0,0,0,1.0,
Jones,Mammals,37.11666666666667,-100.36666666666666,0,0,0,0,0,0,0,0,0,0,0,0,0,0,0,0,0,0,0,0,0,0,
Green Lizard Site [5MT3901],Mammals,37.25,-108.86666666666666,0,0,0,0,0,0,0,0,0,0,0,0,0,0,0,0,0,0,0,0,0,0,
Indian School [39HU10],Mammals,44.25,-100.11666666666666,0,0,0,0,0,0,0,0,0,0,0,0,0,0,0,0,0,0,0,0,0,1.0,
Larson [39WW2],Mammals,45.51944444444446,-100.4125,0,0,0,0,0,0,0,0,0,0,0,0,0,0,0,0,0,0,0,0,0,1.0,
Sommers [39ST56],Mammals,44.25777777777777,-99.94666666666666,0,0,0,0,0,0,0,0,0,0,0,0,0,0,0,0,0,0,0,0,0,0,
Schmidt [25HW301],Mammals,41.25,-98.5,0,0,0,0,0,0,0,0,0,0,0,0,0,0,0,0,0,0,0,0,0,1.0,
Lime Creek [25FT41],Mammals,40.36666666666667,-100.11666666666666,0,0,0,0,0,0,0,0,0,0,0,0,0,0,0,0,0,0,0,0,0,0,
Litchfield Local Fauna [SM-102],Mammals,41.11666666666667,-99.11666666666666,0,0,0,0,0,0,0,0,0,0,10.0,0,0,0,0,0,0,0,0,0,0,0,
Big Hidatsa [32ME12],Mammals,47.25,-101.5,0,0,0,0,0,0,0,0,0,0,0,0,0,0,0,0,0,0,0,0,0,4.0,
Mondrian Tree [32MZ58],Mammals,47.95,-103.9,0,0,0,0,0,0,0,0,0,0,0,0,0,0,0,0,0,1.0,2.0,3.0,0,2.0,
Taylor Bluff [32ME366],Mammals,47.25,-101.5,0,0,0,0,0,0,0,0,0,0,0,0,0,0,0,0,0,0,0,0,0,0,
Lower Hidatsa [32ME10],Mammals,47.25,-101.36666666666666,0,0,0,0,0,0,0,0,0,0,0,0,0,0,0,0,0,0,0,0,0,5.0,
Poly [32ME407],Mammals,47.25,-101.36666666666666,0,0,0,0,0,0,0,0,0,0,0,0,0,0,0,0,0,0,0,0,0,1.0,
Youess [32ME415],Mammals,47.25,-101.36666666666666,0,0,0,0,0,0,0,0,0,0,0,0,0,0,0,0,0,0,0,0,0,3.0,
Forkorner [32ME413],Mammals,47.25,-101.36666666666666,0,0,0,0,0,0,0,0,0,0,0,0,0,0,0,0,0,0,0,0,0,1.0,
Sakakawea [32ME11],Mammals,47.25,-101.36666666666666,0,0,0,0,0,0,0,0,0,0,0,0,0,0,0,0,0,0,0,0,0,1.0,
Lehmer [32OL172],Mammals,47.25,-100.86666666666666,0,0,0,0,0,0,0,0,0,0,0,0,0,0,0,0,0,0,0,0,0,0,
Recon John Shelter,Mammals,38.5,-104.75,0,0,0,0,0,0,0,0,0,0,0,0,0,0,0,0,0,0,0,0,0,0,
Cattleguard [5AL101],Mammals,37.61666666666666,-105.5,0,0,0,0,0,0,0,0,0,0,0,2.0,0,0,0,0,0,0,0,0,0,2.0,
Holmes Terrace [24FR52],Mammals,47.61666666666666,-109.61666666666667,0,0,0,0,0,0,0,0,0,0,0,0,0,0,0,0,0,0,0,0,0,0,
Fowlkes Cave,Mammals,31.0,-104.11666666666666,0,0,0,0,0,0,0,0,0,0,0,0,0,0,0,0,0,0,0,0,0,0,
Bear Creek Shelter [41HI17],Mammals,32.0,-97.25,0,0,0,0,0,0,0,0,0,0,0,0,0,0,0,0,0,0,0,0,0,0,
Zesch Cave,Mammals,30.75,-99.25,0,0,0,0,0,0,0,0,0,0,0,0,0,0,0,0,0,0,0,0,0,0,
Friesenhahn Cave,Mammals,29.616666666666667,-98.36666666666666,0,0,0,0,0,0,0,0,0,0,0,0,0,0,0,0,0,0,0,0,0,2.0,
Witt [14GE600],Mammals,39.08333333333333,-96.58333333333333,0,0,0,0,0,0,0,0,0,0,0,0,0,0,0,0,0,0,0,0,0,0,
41TG91,Mammals,31.366666666666664,-100.5,0,0,0,0,0,0,0,0,0,0,0,0,0,0,0,0,0,0,0,0,0,0,
Stigenwalt [14LT351],Mammals,37.25,-95.5,0,0,0,0,0,0,0,0,0,0,0,0,0,0,0,0,0,0,0,0,0,0,
Sandoval Section LA-4169,Mammals,37.016666666666666,-107.36666666666666,0,0,0,0,0,0,0,0,0,0,0,0,0,0,0,0,0,0,0,0,0,0,
Beaver Creek Shelter [39CU779],Mammals,43.583333333333336,-103.5,0,0,0,0,0,0,0,0,0,0,0,0,0,0,0,0,0,0,0,0,0,0,
Gatecliff Shelter [26NY301],Mammals,39.0,-116.78333333333332,0,0,0,0,0,0,0,0,0,0,0,0,0,0,0,0,0,0,0,0,0,0,
Kachina Cave [26WH13 (Berkeley)] [26WP69],Mammals,39.25,-114.11666666666666,0,0,0,0,0,0,0,0,0,0,0,0,0,0,0,0,0,0,0,1.0,0,0,
Murray Springs [EE:8:25],Mammals,31.570833333333336,-110.17722222222218,0,0,0,0,0,0,0,0,0,0,0,0,0,0,0,0,0,0,0,0,0,0,
Lehner [Lehner Ranch] [UALP14],Mammals,31.333333333333332,-110.05,0,0,0,0,0,0,0,0,0,0,0,2.0,0,0,0,0,0,0,0,0,0,0,
Wolcott Peak Midden 2 [UALP7235],Mammals,32.45,-111.46666666666668,0,0,0,0,0,0,0,0,0,0,0,0,0,0,0,0,0,0,0,0,0,0,
Wolcott Peak Midden 5 [UALP7240],Mammals,32.45,-111.46666666666668,0,0,0,0,0,0,0,0,0,0,0,0,0,0,0,0,0,0,0,0,0,0,
Castle Mountain Midden 3A [UALP8143A],Mammals,32.36666666666667,-112.11666666666666,0,0,0,0,0,0,0,0,0,0,0,0,0,0,0,0,0,0,0,0,0,0,
Castle Mountain Midden 3D [UALP8143D],Mammals,32.36666666666667,-112.11666666666666,0,0,0,0,0,0,0,0,0,0,0,0,0,0,0,0,0,0,0,0,0,0,
Wellton Hills Midden 2 [UALP7310],Mammals,32.5,-114.11666666666666,0,0,0,0,0,0,0,0,0,0,0,0,0,0,0,0,0,0,0,0,0,0,
Wellton Hills Midden 5 [UALP7303],Mammals,32.5,-114.11666666666666,0,0,0,0,0,0,0,0,0,0,0,0,0,0,0,0,0,0,0,0,0,0,
Plumosa Mountains Midden 1,Mammals,33.61666666666666,-114.0,0,0,0,0,0,0,0,0,0,0,0,0,0,0,0,0,0,0,0,0,0,0,
Whipple Mountains Midden 1 [UALP75132],Mammals,34.26666666666666,-114.41666666666669,0,0,0,0,0,0,0,0,0,0,0,0,0,0,0,0,0,0,0,0,0,0,
Whipple Mountains Midden 2 [UALP7447],Mammals,34.26666666666666,-114.41666666666669,0,0,0,0,0,0,0,0,0,0,0,2.0,2.0,0,0,0,0,0,0,0,0,0,
Falling Arches Packrat Midden [UALP7449],Mammals,34.25,-114.25,0,0,0,0,0,0,0,0,0,0,0,0,0,0,0,0,0,0,0,0,0,0,
Tunnel Ridge Midden 2 [UALP7343],Mammals,34.25,-114.25,0,0,0,0,0,0,0,0,0,0,0,0,0,0,0,0,0,0,0,0,0,0,
Tunnel Ridge Midden 5 [UALP7525],Mammals,34.25,-114.25,0,0,0,0,0,0,0,0,0,0,0,0,0,0,0,0,0,0,0,0,0,0,
Ajo Loop Midden 1A,Mammals,31.866666666666667,-112.75,0,0,0,0,0,0,0,0,0,0,0,0,0,0,0,0,0,0,0,0,0,0,
Ajo Loop Midden 3A,Mammals,31.866666666666667,-112.75,0,0,0,0,0,0,0,0,0,0,0,0,0,0,0,0,0,0,0,0,2.0,2.0,
Twin Peaks Midden 7,Mammals,31.866666666666667,-112.75,0,0,0,0,0,0,0,0,0,0,0,0,0,0,0,0,0,0,0,0,0,0,
Alamo Canyon Midden 1B [UALP8140],Mammals,32.0,-112.75,0,0,0,0,0,0,0,0,0,0,0,0,0,0,0,0,0,0,0,0,0,0,
Alamo Canyon Midden 1U,Mammals,32.0,-112.75,0,0,0,0,0,0,0,0,0,0,0,0,0,0,0,0,0,0,0,0,0,0,
Last Supper Cave [26HU102],Mammals,41.61666666666666,-119.11666666666666,0,0,0,0,0,0,0,0,0,0,0,0,0,0,0,0,0,0,0,0,0,0,
Hanging Rock Shelter,Mammals,41.5,-119.36666666666666,0,0,0,0,0,0,0,0,0,0,0,0,0,0,0,0,0,0,0,0,0,0,
Shonto [MNA 186],Mammals,36.56333333333333,-110.64583333333334,0,0,0,0,0,0,0,0,0,0,0,0,0,0,0,0,0,0,0,0,0,0,
Point of Pines,Mammals,33.25,-109.61666666666667,0,0,0,0,0,0,0,0,0,0,0,0,0,0,0,0,0,0,0,0,0,0,
Dry Cave,Mammals,32.37361111111111,-104.48194444444442,0,0,0,0,0,0,0,0,0,0,0,0,0,0,0,0,0,0,0,0,0,0,
Howell's Ridge Cave [UTEP32],Mammals,31.916666666666668,-108.5,0,0,0,0,0,0,0,0,0,0,0,0,0,0,0,0,0,0,0,0,0,0,
U-Bar Cave [LA5689],Mammals,31.4745,-108.4337,0,0,0,0,0,0,0,0,0,0,0,0,0,0,0,0,0,0,0,0,0,0,
Mescal Cave [SBC1.10.12],Mammals,35.36666666666667,-115.5,0,0,0,0,0,0,0,0,0,0,0,0,0,0,0,0,0,0,0,0,0,0,
Antelope House,Mammals,36.11666666666667,-109.5,0,0,0,0,0,0,0,0,0,0,0,0,0,0,0,0,0,0,0,0,0,0,
Owl Cave 1,Mammals,38.9,-114.05,0,0,0,0,0,0,0,0,0,0,0,0,0,0,0,0,0,0,0,0,0,0,
Arroyo Hondo Pueblo,Mammals,35.5,-105.86666666666666,0,0,0,0,0,0,0,0,0,0,0,0,0,0,0,0,0,0,0,0,0,7.0,
James Creek Shelter [26EU843],Mammals,40.75,-116.25,0,0,0,0,0,0,0,0,0,0,0,0,0,0,0,0,0,0,0,0,0,0,
Black Mesa D:11:0449,Mammals,36.36666666666667,-110.25,0,0,0,0,0,0,0,0,0,0,0,0,0,0,0,0,0,0,0,0,0,0,
Black Mesa D:11:2030,Mammals,36.36666666666667,-110.36666666666666,0,0,0,0,0,0,0,0,0,0,0,0,0,0,0,0,0,0,0,0,2.0,0,
Black Mesa D:11:0275,Mammals,36.36666666666667,-110.25,0,0,0,0,0,0,0,0,0,0,0,0,0,0,0,0,0,0,0,0,0,0,
Dark Canyon Cave,Mammals,32.25,-104.5,0,0,0,0,0,0,0,0,0,0,0,0,0,0,0,0,0,0,0,0,0,0,
The Khulo [MALB 21],Mammals,32.0,-107.0,0,0,0,0,0,0,0,0,0,0,0,0,0,0,0,0,0,0,0,0,0,0,
Antelope Cave [SBC1.10.10],Mammals,35.36666666666667,-115.5,0,0,0,0,0,0,0,0,0,0,0,0,0,0,0,0,0,0,0,0,0,0,
Kokoweef Cave [SBC1.11.13],Mammals,35.416666666666664,-115.5,0,0,0,0,0,0,0,0,0,0,0,0,0,0,0,0,0,0,0,0,0,0,
Schuiling Cave [LACM 1123],Mammals,34.75,-116.61666666666667,0,0,0,0,0,0,0,0,0,0,0,0,0,0,0,0,0,0,0,0,0,0,
Solar One [1.76.13],Mammals,34.88333333333333,-116.83333333333331,0,0,0,0,0,0,0,0,0,0,0,0,0,0,0,0,0,0,0,0,0,0,
Luz Solar Trough [1.76.34],Mammals,34.88333333333333,-116.83333333333331,0,0,0,0,0,0,0,0,0,0,0,0,0,0,0,0,0,0,0,0,0,0,
Daggett Calico Lakes [1.76.35],Mammals,34.88333333333333,-116.83333333333331,0,0,0,0,0,0,0,0,0,0,0,0,0,0,0,0,0,0,0,0,0,0,
Daggett Solid Waste Locality [1.76.33],Mammals,34.88333333333333,-116.83333333333331,0,0,0,0,0,0,0,0,0,0,0,0,0,0,0,0,0,0,0,0,0,0,
Teichart Gravel Pit [UCMPV69129],Mammals,38.535,-121.37027777777776,0,0,0,0,0,0,0,0,0,0,0,0,0,0,0,0,0,0,0,0,0,0,
Wildcat Canyon [35GM9],Mammals,45.61666666666666,-120.36666666666666,0,0,0,0,0,0,0,0,0,0,0,0,0,0,0,0,0,0,0,0,0,0,
Centennial Parkway Site [SBCM 2.6.1],Mammals,36.25,-115.11666666666666,0,0,0,0,0,0,0,0,0,0,0,0,0,0,0,0,0,0,0,0,0,0,
Carpinteria [LACM 139],Mammals,34.38583333333333,-119.505,0,0,0,0,0,0,0,0,0,0,0,0,0,0,0,0,0,0,0,0,0,0,
Stillwater Marsh Site 26CH1048,Mammals,39.75,-118.61666666666667,0,0,0,0,0,0,0,0,0,0,0,0,0,0,0,0,0,0,0,0,0,0,
O'Malley Shelter,Mammals,37.51666666666667,-114.26666666666668,0,0,0,0,0,0,0,0,0,0,0,0,0,0,0,0,0,0,0,0,0,0,
Albino Village [LA 4269],Mammals,36.866666666666674,-107.5,0,0,0,0,0,0,0,0,0,0,0,0,0,0,0,0,0,0,0,0,1.0,0,
Bancos Village [LA 4380],Mammals,36.866666666666674,-107.36666666666666,0,0,0,0,0,0,0,0,0,0,0,0,0,0,0,0,0,0,0,0,1.0,0,
Navajo Reservoir Site LA 4247,Mammals,36.866666666666674,-107.36666666666666,0,0,0,0,0,0,0,0,0,0,0,0,0,0,0,0,0,0,0,0,1.0,0,
Picacho Peak,Mammals,32.61666666666666,-111.4,0,0,0,0,0,0,0,0,0,0,0,0,0,0,0,0,0,0,0,0,0,0,
Potosi Mountain Midden 2,Mammals,36.0,-115.38333333333334,0,0,0,0,0,0,0,0,0,0,0,0,0,0,0,0,0,0,0,0,0,0,
Blasingame [FRE 1671],Mammals,36.866666666666674,-119.5,0,0,0,0,0,0,0,0,0,0,0,0,0,0,0,0,0,0,0,0,0,0,
Adam 2 [26CK2059],Mammals,36.5,-114.36666666666666,0,0,0,0,0,0,0,0,0,0,0,0,0,0,0,0,0,0,0,0,0,2.0,
Henwood [45BR4966],Mammals,35.36666666666667,-116.75,0,0,0,0,0,0,0,0,0,0,0,0,0,0,0,0,0,0,0,0,0,0,
Awl Site [45BR4562],Mammals,35.36666666666667,-116.61666666666667,0,0,0,0,0,0,0,0,0,0,0,0,0,0,0,0,0,0,0,0,0,0,
Aubrey [41DN479],Mammals,33.25,-96.86666666666666,0,0,0,0,0,0,0,0,0,0,0,0,0,0,0,0,0,0,0,0,0,0,
Hall's Cave [41KR474] [41229],Mammals,30.13333333333333,-99.54166666666663,0,0,0,0,0,0,0,0,0,0,0,0,0,0,0,0,0,0,0,0,0,0,
Rodgers Shelter [23BE125],Mammals,38.08888888888888,-93.35000000000002,0,0,0,0,0,0,0,0,0,0,0,0,0,0,0,0,0,0,0,0,0,0,
Toquima Cave [Potts Cave],Mammals,39.18333333333333,-117.0,0,0,0,0,0,0,0,0,0,0,0,0,0,0,0,0,0,0,0,0,0,0,
Bradshaw Shelter [ES81],Mammals,37.75,-117.25,0,0,0,0,0,0,0,0,0,0,0,0,0,0,0,0,0,0,0,0,0,0,
Triple T Shelter [NY345],Mammals,39.0,-116.86666666666666,0,0,0,0,0,0,0,0,0,0,0,0,0,0,0,0,0,0,0,0,0,0,
Council Hall Cave [26WP229],Mammals,39.333333333333336,-114.16666666666666,0,0,0,0,0,0,0,0,0,0,0,0,0,0,0,0,0,0,0,0,0,0,
Fre-1155,Mammals,36.75,-119.75,0,0,0,0,0,0,0,0,0,0,0,0,0,0,0,0,0,0,0,0,0,0,
Fre-632,Mammals,36.75,-119.75,0,0,0,0,0,0,0,0,0,0,0,0,0,0,0,0,0,0,0,0,0,0,
