Site,Type,Latitude,Longitude,22000-21000,21000-20000,20000-19000,19000-18000,18000-17000,17000-16000,16000-15000,15000-14000,14000-13000,13000-12000,12000-11000,11000-10000,10000-9000,9000-8000,8000-7000,7000-6000,6000-5000,5000-4000,4000-3000,3000-2000,2000-1000,1000-present
Jones-Miller,Mammals,39.866666666666674,-102.11666666666666,0,0,0,0,0,0,0,0,0,0,0,0,0,0,0,0,0,0,0,0,0,0,
Blackwater Draw Loc. 1,Mammals,34.28333333333334,-103.31666666666666,0,0,0,0,0,0,0,0,0,0,0,0,0,0,0,0,0,0,0,0,0,0,
Dutton,Mammals,39.61666666666666,-102.25,0,0,0,0,0,0,0,0,0,0,0,0,0,0,0,0,0,0,0,0,0,0,
Peccary Cave,Mammals,35.866666666666674,-93.0,0,0,0,0,0,29.0,0,0,0,0,0,0,0,0,0,0,0,0,0,3.0,0,0,
Bell Cave [48AB304],Mammals,41.75,-105.36666666666666,0,0,0,0,0,0,0,0,0,0,0,0,0,0,0,0,0,0,0,0,0,0,
New Paris #4 [Lloyd's Rock Hole],Mammals,40.08333333333333,-78.65,0,0,0,0,0,0,0,0,0,0,35.0,0,0,0,0,0,0,0,0,0,0,0,
Clark's Cave,Mammals,38.0861111111111,-79.65694444444445,0,0,0,0,0,0,0,0,0,0,0,0,0,0,0,0,0,0,0,0,0,0,
Baker Bluff Cave,Mammals,36.45833333333334,-82.46666666666667,0,0,9.0,0,0,0,0,0,0,0,51.0,44.0,0,0,0,0,0,0,0,0,0,0,
Robinson Cave,Mammals,36.29027777777778,-85.3736111111111,0,0,0,0,0,0,0,0,0,0,0,0,0,0,0,0,0,0,0,0,0,0,
Ladd's Quarry,Mammals,34.15,-84.83333333333333,0,0,0,0,0,0,0,0,0,0,0,0,0,0,0,0,0,0,0,0,0,0,
Eagle Cave [DjPp-100],Mammals,49.63611111111113,-114.64,0,0,0,0,0,0,0,0,0,0,0,0,0,0,0,0,0,0,0,0,0,0,
Back Creek Cave 1,Mammals,38.06666666666666,-79.89166666666668,0,0,0,0,0,0,0,0,0,0,0,0,0,0,0,0,0,0,0,0,0,0,
January Cave [EbPp-Vp],Mammals,50.1883333333333,-114.518333333333,0,0,0,0,0,0,0,0,0,0,0,0,0,0,0,0,0,0,0,0,0,0,
Prairie Creek [12Da9],Mammals,38.71416666666668,-87.1711111111111,0,0,0,0,0,0,0,0,0,0,0,0,0,0,0,0,0,0,0,0,0,0,
North Cove [25HN164],Mammals,40.11666666666667,-99.36666666666666,0,0,0,0,0,0,0,17.0,0,17.0,0,0,0,0,0,0,0,0,0,0,0,0,
Howard Ranch,Mammals,34.36666666666667,-99.75,0,0,0,0,0,0,0,0,0,0,0,0,0,0,0,0,0,0,0,0,0,0,
Clear Creek Local Fauna [Trietsch Pit],Mammals,33.25,-97.0,0,0,0,0,0,0,0,0,0,0,0,0,0,0,0,0,0,0,0,0,0,0,
Ben Franklin,Mammals,33.36666666666667,-95.75,0,0,0,0,0,0,0,0,0,0,0,0,0,0,0,0,0,0,0,0,0,0,
Dust Cave [C-09],Mammals,31.866666666666667,-104.75,0,0,0,0,0,0,0,0,0,0,0,0,0,0,0,0,0,0,0,0,0,0,
Lower Sloth Cave,Mammals,31.866666666666667,-104.86666666666666,0,0,0,0,0,0,0,0,0,0,0,0,0,0,0,0,0,0,0,0,0,0,
Schulze Cave,Mammals,30.25,-99.86666666666666,0,0,0,0,0,0,0,0,0,0,0,0,0,0,0,0,0,0,0,0,0,0,
Cave Without A Name,Mammals,29.883333333333336,-98.61666666666667,0,0,0,0,0,0,0,0,0,0,0,0,0,0,0,0,0,0,0,0,0,0,
Upper Sloth Cave [TTu-Tex-2],Mammals,31.866666666666667,-104.75,0,0,0,0,0,0,0,0,0,0,0,0,0,0,0,0,0,0,0,0,0,0,
Agate Basin [48NO201],Mammals,43.36666666666667,-104.06666666666668,0,0,0,0,0,0,0,0,0,0,0,1.0,0,0,0,0,0,0,0,0,0,0,
Medicine Lodge Creek [48BH499],Mammals,44.25,-107.5,0,0,0,0,0,0,0,0,0,0,0,0,0,0,0,0,0,0,0,0,0,0,
River Bend [48NA202],Mammals,42.75,-106.36666666666666,0,0,0,0,0,0,0,0,0,0,0,0,0,0,0,0,0,0,0,0,0,2.0,
Robert,Mammals,37.016666666666666,-100.36666666666666,0,0,0,0,0,0,0,0,0,0,0,0,0,0,0,0,0,0,0,0,0,0,
Jones,Mammals,37.11666666666667,-100.36666666666666,0,0,0,0,0,0,0,0,0,0,0,0,0,0,0,0,0,0,0,0,0,0,
Lower Grand [Davis] [39CO14],Mammals,45.575,-100.48333333333336,0,0,0,0,0,0,0,0,0,0,0,0,0,0,0,0,0,0,0,0,0,2.0,
Helb [39CA208],Mammals,45.785833333333336,-100.3486111111111,0,0,0,0,0,0,0,0,0,0,0,0,0,0,0,0,0,0,0,0,0,4.0,
Oakwood Lakes [39BK7],Mammals,44.36666666666667,-96.86666666666666,0,0,0,0,0,0,0,0,0,0,0,0,0,0,0,0,0,0,0,0,0,1.0,
Walth Bay [39WW203],Mammals,45.4125,-100.275,0,0,0,0,0,0,0,0,0,0,0,0,0,0,0,0,0,0,0,0,0,1.0,
Litchfield Local Fauna [SM-102],Mammals,41.11666666666667,-99.11666666666666,0,0,0,0,0,0,0,0,0,0,5.0,0,0,0,0,0,0,0,0,0,0,0,
Big Hidatsa [32ME12],Mammals,47.25,-101.5,0,0,0,0,0,0,0,0,0,0,0,0,0,0,0,0,0,0,0,0,0,0,
White Buffalo Robe [32ME7],Mammals,47.25,-101.36666666666666,0,0,0,0,0,0,0,0,0,0,0,0,0,0,0,0,0,0,0,0,0,2.0,
Bundlemaker [32OL159],Mammals,47.25,-101.0,0,0,0,0,0,0,0,0,0,0,0,0,0,0,0,0,0,0,0,1.0,0,1.0,
Mondrian Tree [32MZ58],Mammals,47.95,-103.9,0,0,0,0,0,0,0,0,0,0,0,0,0,0,0,0,0,0,0,0,0,3.0,
Lower Hidatsa [32ME10],Mammals,47.25,-101.36666666666666,0,0,0,0,0,0,0,0,0,0,0,0,0,0,0,0,0,0,0,0,0,2.0,
Jamestown Mounds [32SN22],Mammals,46.866666666666674,-98.61666666666667,0,0,0,0,0,0,0,0,0,0,0,0,0,0,0,0,0,0,0,0,0,0,
Fence Cave Local Fauna,Mammals,42.70416666666666,-91.41388888888888,0,0,0,0,0,0,0,0,0,0,0,0,0,0,0,0,0,0,0,0,0,0,
Pleasant Ridge,Mammals,40.96666666666666,-95.7,0,0,0,0,0,0,0,0,0,0,0,0,0,0,0,0,0,0,0,0,1.0,0,
Willard Cave,Mammals,42.63333333333334,-91.29722222222222,0,0,0,0,0,0,0,0,0,0,0,0,0,0,0,0,0,0,2.0,0,2.0,0,
Mud Creek,Mammals,41.61666666666666,-90.86666666666666,0,0,0,0,0,0,0,0,0,0,0,0,1.0,0,0,0,1.0,0,0,0,0,0,
Dows,Mammals,42.666666666666664,-93.4583333333333,0,0,0,0,0,0,0,0,0,0,0,0,1.0,0,0,0,0,0,0,0,0,0,
Cherokee Sewer [13CK405],Mammals,42.7225,-95.72333333333334,0,0,0,0,0,0,0,0,0,0,0,1.0,0,2.0,0,3.0,0,0,0,0,0,0,
Brayton,Mammals,41.61666666666666,-94.86666666666666,0,0,0,0,0,0,0,0,0,2.0,0,0,0,0,0,0,0,0,0,0,0,0,
Waubonsie,Mammals,40.95805555555555,-95.73527777777775,0,0,0,0,0,0,0,0,0,0,0,0,0,0,0,0,0,0,0,0,0,0,
Craigmile,Mammals,40.95805555555555,-95.73527777777775,0,0,0,0,0,0,0,0,0,0,0,0,0,0,0,0,0,0,0,0,0,0,
Shield Trap [24CB91],Mammals,45.11666666666667,-108.25,0,0,0,0,0,0,0,0,0,0,0,0,0,0,0,0,0,0,0,0,0,0,
False Cougar Cave [24CB84],Mammals,45.11666666666667,-108.25,0,0,0,0,0,0,0,0,0,0,0,0,0,0,0,0,0,0,0,0,0,0,
Morse Creek #1,Mammals,46.61666666666666,-113.11666666666666,0,0,0,0,0,0,0,0,0,0,0,0,0,0,0,0,0,0,0,0,0,0,
Beaver Creek Shelter [39CU779],Mammals,43.583333333333336,-103.5,0,0,0,0,0,0,0,0,0,0,0,0,0,0,0,0,0,0,0,0,0,0,
Lamar,Mammals,44.866666666666674,-110.25,0,0,0,0,0,0,0,0,0,0,0,0,0,0,0,0,0,0,0,0,1.0,1.0,
Back Creek Cave #2,Mammals,38.06666666666666,-79.89166666666668,0,0,0,0,0,0,0,0,0,0,0,0,0,0,0,0,0,0,0,0,0,0,
Frankstown Cave,Mammals,40.36666666666667,-78.25,0,0,0,0,0,0,0,0,0,0,0,0,0,0,0,0,0,0,0,0,0,0,
Holston Vista Cave,Mammals,36.75,-81.86666666666666,0,0,0,0,0,0,0,0,0,0,0,0,0,0,0,0,0,0,0,0,0,0,
Megenity Peccary Cave,Mammals,38.25,-86.5,0,0,0,0,0,0,0,0,0,0,0,0,0,0,0,0,0,0,0,0,0,0,
Anderson Pit,Mammals,39.0,-86.5,0,0,0,0,0,0,0,0,0,0,0,0,0,0,0,0,0,0,0,0,0,0,
King Leo Pit Cave,Mammals,38.25,-86.11666666666666,0,0,0,0,0,0,0,0,0,0,1.0,0,0,0,0,0,0,0,0,0,0,0,
Patton Cave,Mammals,37.54333333333334,-80.3988888888889,0,0,0,0,0,0,0,0,8.0,0,0,0,0,0,0,0,0,0,0,0,0,0,
Zoo Cave,Mammals,36.61666666666666,-92.86666666666666,0,0,0,0,0,0,0,0,0,0,0,0,0,0,0,0,0,0,0,0,0,0,
Moscow Fissure,Mammals,42.866666666666674,-89.86666666666666,0,0,0,0,3.0,0,0,0,0,0,0,0,0,0,0,0,0,0,0,0,0,0,
Crankshaft Cave,Mammals,38.36666666666667,-90.5,0,0,0,0,0,0,0,0,0,0,38.0,0,0,0,0,0,0,0,0,0,0,0,
Hollidaysburg Fissure,Mammals,40.36666666666667,-78.36666666666666,0,0,0,0,0,0,0,0,0,0,0,0,0,0,0,0,0,0,0,0,0,0,
Sheriden Pit [Indian Trail Caverns],Mammals,40.866666666666674,-83.36666666666666,0,0,0,0,0,0,0,0,0,0,0,0,0,0,0,0,0,0,0,0,0,0,
New Trout Cave,Mammals,38.602777777777774,-79.36888888888889,0,0,0,0,0,0,0,0,0,0,0,0,0,0,0,0,0,0,0,0,0,0,
Muskox Cave,Mammals,32.11666666666667,-104.5,0,0,0,0,0,0,0,0,0,0,0,0,0,0,0,0,0,0,0,0,0,0,
Lilienthal Site,Mammals,41.6691666666667,-90.9069444444444,0,0,0,0,0,0,0,0,0,0,0,0,0,0,1.0,1.0,0,0,0,0,0,0,
