Site,Type,Latitude,Longitude,22000-21000,21000-20000,20000-19000,19000-18000,18000-17000,17000-16000,16000-15000,15000-14000,14000-13000,13000-12000,12000-11000,11000-10000,10000-9000,9000-8000,8000-7000,7000-6000,6000-5000,5000-4000,4000-3000,3000-2000,2000-1000,1000-present
Chimney Rock Animal Trap,Mammals,40.866666666666674,-105.75,0,0,0,0,0,0,0,0,0,0,0,0,0,0,0,0,0,0,0,0,0,0,
New Paris #4 [Lloyd's Rock Hole],Mammals,40.08333333333333,-78.65,0,0,0,0,0,0,0,0,0,0,12.0,0,0,0,0,0,0,0,0,0,0,0,
Clark's Cave,Mammals,38.0861111111111,-79.65694444444445,0,0,0,0,0,0,0,0,0,0,0,0,0,0,0,0,0,0,0,0,0,0,
Baker Bluff Cave,Mammals,36.45833333333334,-82.46666666666667,0,0,5.0,0,0,0,0,0,0,0,30.0,25.0,0,0,0,0,0,0,0,0,0,0,
Crystal Ball Cave,Mammals,39.0,-113.0,0,0,0,0,0,0,0,0,0,0,0,0,0,0,0,0,0,0,0,0,0,0,
Cheek Bend Cave [40MU261],Mammals,35.5,-86.86666666666666,0,0,0,0,0,0,0,0,0,0,0,0,0,0,0,0,0,0,0,0,0,0,
January Cave [EbPp-Vp],Mammals,50.1883333333333,-114.518333333333,0,0,0,0,0,0,0,0,0,0,0,0,0,0,0,0,0,0,0,0,0,0,
North Cove [25HN164],Mammals,40.11666666666667,-99.36666666666666,0,0,0,0,0,0,0,2.0,0,2.0,0,0,0,0,0,0,0,0,0,0,0,0,
Medicine Lodge Creek [48BH499],Mammals,44.25,-107.5,0,0,0,0,0,0,0,0,0,0,0,0,0,0,0,0,0,0,0,0,0,0,
New Paris #2,Mammals,40.08333333333333,-78.65,0,0,0,0,0,0,0,0,0,0,0,0,0,0,0,0,0,0,0,0,0,0,
Sweet Jane [13BN279],Mammals,42.11666666666667,-93.86666666666666,0,0,0,0,0,0,0,0,0,0,0,0,0,0,0,1.0,0,0,1.0,0,0,0,
Dows,Mammals,42.666666666666664,-93.4583333333333,0,0,0,0,0,0,0,0,0,0,0,0,1.0,0,0,0,0,0,0,0,0,0,
Craigmile,Mammals,40.95805555555555,-95.73527777777775,0,0,0,0,0,0,0,0,0,0,0,0,0,0,0,0,0,0,0,0,0,0,
Long House,Mammals,37.18694444444445,-108.5025,0,0,0,0,0,0,0,0,0,0,0,0,0,0,0,0,0,0,0,0,0,0,
Mug House,Mammals,37.11666666666667,-108.5,0,0,0,0,0,0,0,0,0,0,0,0,0,0,0,0,0,0,0,0,0,0,
Lange-Ferguson [39SH33],Mammals,43.25,-102.75,0,0,0,0,0,0,0,0,0,0,3.0,3.0,0,0,0,0,0,0,0,0,0,0,
Ten Mile Rock [3WA197],Mammals,35.866666666666674,-94.0,0,0,0,0,0,0,0,0,0,0,0,0,0,0,0,0,0,0,0,0,0,0,
Lamar,Mammals,44.866666666666674,-110.25,0,0,0,0,0,0,0,0,0,0,0,0,0,0,0,0,0,0,0,0,3.0,3.0,
Gillespie's Cliff Cave,Mammals,37.11666666666667,-81.5,0,0,0,0,0,0,0,0,0,0,0,0,0,0,0,0,0,0,0,0,0,0,
Holston Vista Cave,Mammals,36.75,-81.86666666666666,0,0,0,0,0,0,0,0,0,0,0,0,0,0,0,0,0,0,0,0,0,0,
Cliff Cave #2 (Stratum B),Mammals,37.312777777777775,-80.6463888888889,0,0,0,0,0,0,0,0,0,0,0,0,0,0,0,0,0,0,0,0,0,0,
Eggleston Fissure,Mammals,37.28361111111112,-80.61333333333332,0,0,0,0,0,0,0,0,0,0,0,0,0,0,0,0,0,0,0,0,0,0,
Pembroke Railroad Cave #1,Mammals,37.25,-80.75,0,0,0,0,0,0,0,0,0,0,0,0,0,0,0,0,0,0,0,0,0,0,
Klotz Quarry Cave #5,Mammals,37.25,-80.75,0,0,0,0,0,0,0,0,0,0,0,0,0,0,0,0,0,0,0,0,0,0,
Sister's Creek [11-F-15],Mammals,40.36666666666667,-90.0,0,0,0,0,0,0,0,0,0,0,0,0,0,0,0,0,0,0,0,0,0,0,
Last Supper Cave [26HU102],Mammals,41.61666666666666,-119.11666666666666,0,0,0,0,0,0,0,0,0,0,0,0,0,0,0,0,0,0,0,0,0,0,
Dry Cave,Mammals,32.37361111111111,-104.48194444444442,0,0,0,0,0,0,0,0,0,0,0,0,0,0,0,0,0,0,0,0,0,0,
Owl Cave 1,Mammals,38.9,-114.05,0,0,0,0,0,0,0,0,0,0,0,0,0,0,0,0,0,0,0,0,0,0,
Whale Cove [35LNC60],Mammals,44.75,-124.0,0,0,0,0,0,0,0,0,0,0,0,0,0,0,0,0,0,0,0,0,0,2.0,
James Creek Shelter [26EU843],Mammals,40.75,-116.25,0,0,0,0,0,0,0,0,0,0,0,0,0,0,0,0,0,0,0,0,0,0,
Dark Canyon Cave,Mammals,32.25,-104.5,0,0,0,0,0,0,0,0,0,0,0,0,0,0,0,0,0,0,0,0,0,0,
Antelope Cave [SBC1.10.10],Mammals,35.36666666666667,-115.5,0,0,0,0,0,0,0,0,0,0,0,0,0,0,0,0,0,0,0,0,0,0,
Daggett Solid Waste Locality [1.76.33],Mammals,34.88333333333333,-116.83333333333331,0,0,0,0,0,0,0,0,0,0,0,0,0,0,0,0,0,0,0,0,0,0,
Chief Joseph Dam Site 45OK250,Mammals,48.11666666666667,-119.11666666666666,0,0,0,0,0,0,0,0,0,0,0,0,0,0,0,0,0,0,2.0,0,0,0,
Chief Joseph Dam Site 45DO211,Mammals,48.0,-119.0,0,0,0,0,0,0,0,0,0,0,0,0,0,0,0,0,0,0,0,2.0,0,0,
Chief Joseph Dam Site 45DO285,Mammals,48.0,-119.0,0,0,0,0,0,0,0,0,0,0,0,0,0,0,0,0,0,0,0,0,0,0,
Rainbow Beach [ISUM 72003],Mammals,42.88333333333333,-112.71666666666668,0,0,0,0,0,0,0,0,0,0,0,0,0,0,0,0,0,0,0,0,0,0,
Carcass Crypt Cave,Mammals,38.75,-86.5,0,0,0,0,0,0,0,0,0,0,0,0,0,0,0,0,0,0,0,0,0,0,
Hidden Pit Cave,Mammals,39.11666666666667,-86.61666666666667,0,0,0,0,0,0,0,0,0,0,0,0,0,0,0,0,0,0,0,0,0,0,
Anderson Pit,Mammals,39.0,-86.5,0,0,0,0,0,0,0,0,0,0,0,0,0,0,0,0,0,0,0,0,0,0,
King Leo Pit Cave,Mammals,38.25,-86.11666666666666,0,0,0,0,0,0,0,0,0,0,2.0,0,0,0,0,0,0,0,0,0,0,0,
North Jim Cave,Mammals,38.08333333333333,-86.11666666666666,0,0,0,0,0,0,0,0,0,0,0,0,0,0,0,0,0,0,0,0,0,0,
Moscow Fissure,Mammals,42.866666666666674,-89.86666666666666,0,0,0,0,2.0,0,0,0,0,0,0,0,0,0,0,0,0,0,0,0,0,0,
Crankshaft Cave,Mammals,38.36666666666667,-90.5,0,0,0,0,0,0,0,0,0,0,120.0,0,0,0,0,0,0,0,0,0,0,0,
Barnhart,Mammals,38.34333333333334,-90.38388888888889,0,0,0,0,0,0,0,0,0,0,0,0,0,0,0,0,0,0,0,0,0,0,
Sheriden Pit [Indian Trail Caverns],Mammals,40.866666666666674,-83.36666666666666,0,0,0,0,0,0,0,0,0,0,0,0,0,0,0,0,0,0,0,0,0,0,
Hall's Cave [41KR474] [41229],Mammals,30.13333333333333,-99.54166666666663,0,0,0,0,0,0,0,0,0,0,0,0,0,0,0,0,0,0,0,0,0,0,
Duck Point [Carr-Trimble],Mammals,42.61666666666666,-112.86666666666666,0,0,0,0,0,0,0,0,0,0,0,0,0,0,0,0,0,0,0,0,0,0,
Samwell Cave,Mammals,40.916911,-122.23787,0,0,0,0,0,0,0,0,0,0,0,0,0,0,0,0,0,0,0,0,0,0,
