Site,Type,Latitude,Longitude,22000-21000,21000-20000,20000-19000,19000-18000,18000-17000,17000-16000,16000-15000,15000-14000,14000-13000,13000-12000,12000-11000,11000-10000,10000-9000,9000-8000,8000-7000,7000-6000,6000-5000,5000-4000,4000-3000,3000-2000,2000-1000,1000-present
Selby,Mammals,39.866666666666674,-102.25,0,0,0,0,0,0,0,0,0,0,0,0,0,0,0,0,0,0,0,0,0,0,
Spring Canyon [A-41],Mammals,35.71666666666667,-101.55,0,0,0,0,0,0,0,0,0,0,0,0,0,0,0,0,0,0,0,0,0,0,
Canyon City Club Cave [A251],Mammals,35.0,-101.86666666666666,0,0,0,0,0,0,0,0,0,0,0,0,0,0,0,0,0,0,0,0,0,6.0,
Deadman's Shelter [41SW23],Mammals,34.5,-101.36666666666666,0,0,0,0,0,0,0,0,0,0,0,0,0,0,0,0,0,0,0,0,2.0,0,
Dutton,Mammals,39.61666666666666,-102.25,0,0,0,0,0,0,0,0,0,0,0,0,0,0,0,0,0,0,0,0,0,0,
Moonshiner,Mammals,43.36666666666667,-112.61666666666667,0,0,0,0,0,0,0,0,0,0,0,0,0,0,0,0,0,0,0,0,0,0,
Natural Trap Cave,Mammals,44.866666666666674,-108.11666666666666,0,0,0,0,0,0,0,0,0,0,0,0,0,0,0,0,0,0,0,0,0,0,
Middle Butte Cave,Mammals,43.36666666666667,-112.61666666666667,0,0,0,0,0,0,0,0,0,0,0,0,0,0,0,0,69.0,0,0,0,0,69.0,
Loop Creek Quarry Cave,Mammals,37.0,-81.86666666666666,0,0,0,0,0,0,0,0,0,0,0,0,0,0,0,0,0,0,0,0,0,0,
Pabst,Mammals,40.17111111111111,-88.83527777777778,0,0,0,0,0,0,0,0,0,0,0,0,0,0,0,0,0,0,0,0,0,0,
Deer Creek Cave [EL-25],Mammals,41.75,-115.36666666666666,0,0,0,0,0,0,0,0,0,0,0,0,0,0,0,0,0,0,0,0,0,0,
Smith Creek Cave [26WP46],Mammals,39.333333333333336,-114.08333333333331,0,0,0,0,0,0,0,0,0,0,0,0,0,0,0,0,0,0,0,0,0,0,
North Cove [25HN164],Mammals,40.11666666666667,-99.36666666666666,0,0,0,0,0,0,0,11.0,0,11.0,0,0,0,0,0,0,0,0,0,0,0,0,
Hidden Cave [NV-Ch-16 (Berkeley)] [26CH16],Mammals,39.36666666666667,-118.61666666666667,0,0,0,0,0,0,0,0,0,0,0,0,0,0,0,0,0,0,0,0,0,0,
Ceremonial Cave,Mammals,31.866666666666667,-106.0,0,0,0,0,0,0,0,0,0,0,0,0,0,0,0,0,0,0,0,0,0,0,
Williams Cave,Mammals,31.866666666666667,-104.75,0,0,0,0,0,0,0,0,0,0,0,0,0,0,0,0,0,0,0,0,0,0,
Zopilote [41VV216],Mammals,29.5,-101.0,0,0,0,0,0,0,0,0,0,0,0,0,0,0,0,0,0,0,0,0,0,0,
Coontail Spin [41VV82],Mammals,29.65,-101.3,0,0,0,0,0,0,0,0,0,0,0,0,0,0,0,0,0,0,0,0,0,0,
Dust Cave [C-09],Mammals,31.866666666666667,-104.75,0,0,0,0,0,0,0,0,0,0,0,0,0,0,0,0,0,0,0,0,0,0,
Kyle [41HI1],Mammals,32.03361111111112,-97.42027777777776,0,0,0,0,0,0,0,0,0,0,0,0,0,0,0,0,0,0,0,0,0,0,
Devil's Mouth [41VV188],Mammals,29.366666666666664,-101.0,0,0,0,0,0,0,0,0,0,0,0,0,0,0,0,0,0,0,0,0,0,0,
Longhorn Cavern,Mammals,30.616666666666667,-98.25,0,0,0,0,0,0,0,0,0,0,0,0,0,0,0,0,0,0,0,0,0,0,
Baker Cave [41VV213],Mammals,29.983333333333334,-101.1,0,0,0,0,0,0,0,0,0,0,0,0,0,0,0,0,0,0,0,0,0,16.0,
Hinds Cave [41VV456],Mammals,29.89138888888889,-101.44,0,0,0,0,0,0,0,0,0,0,0,0,20.0,0,0,26.0,0,4.0,8.0,4.0,4.0,0,
Prospects Shelter [48BH305],Mammals,44.866666666666674,-108.11666666666666,0,0,0,0,0,0,0,0,0,0,0,0,0,0,0,0,0,0,0,0,0,0,
Horned Owl Cave [48AB305],Mammals,41.56666666666667,-105.51666666666668,0,0,0,0,0,0,0,0,0,0,0,0,0,0,0,0,0,0,0,0,0,0,
Boar's Tusk [48SW1373],Mammals,41.866666666666674,-109.11666666666666,0,0,0,0,0,0,0,0,0,0,0,0,0,0,0,0,0,0,0,0,0,0,
River Bend [48NA202],Mammals,42.75,-106.36666666666666,0,0,0,0,0,0,0,0,0,0,0,0,0,0,0,0,0,0,0,0,0,0,
Austin Wash [48UT390],Mammals,41.36666666666667,-110.25,0,0,0,0,0,0,0,0,0,0,0,0,0,0,0,0,0,0,0,0,0,0,
48UT199,Mammals,41.3666666666667,-110.11666666666666,0,0,0,0,0,0,0,0,0,0,0,0,0,0,0,0,0,2.0,0,0,6.0,0,
48UT779,Mammals,41.5,-110.0,0,0,0,0,0,0,0,0,0,0,0,0,0,0,0,0,0,0,0,0,0,0,
48UT370,Mammals,41.5,-110.11666666666666,0,0,0,0,0,0,0,0,0,0,0,0,0,0,0,4.0,0,4.0,0,0,0,0,
Sister's Hill [48JO314],Mammals,44.26666666666666,-106.76666666666664,0,0,0,0,0,0,0,0,0,0,0,0,0,0,0,0,0,0,0,0,0,0,
Rice Cave [48WA363],Mammals,44.0,-107.11666666666666,0,0,0,0,0,0,0,0,0,0,0,0,0,0,0,0,0,0,0,0,0,0,
Taliaferro Site [48LN1468],Mammals,41.866666666666674,-110.11666666666666,0,0,0,0,0,0,0,0,0,0,0,0,0,0,0,0,0,0,0,0,2.0,0,
48UT362,Mammals,41.25,-110.5,0,0,0,0,0,0,0,0,0,0,0,0,0,0,0,0,0,0,0,0,0,0,
48SW2302,Mammals,41.5,-110.0,0,0,0,0,0,0,0,0,0,0,0,0,0,0,0,0,0,0,0,0,0,0,
48SW5981,Mammals,42.11666666666667,-107.5,0,0,0,0,0,0,0,0,0,0,0,0,0,0,0,0,0,0,0,0,0,0,
48CR4358,Mammals,42.11666666666667,-107.36666666666666,0,0,0,0,0,0,0,0,0,0,0,0,0,0,0,0,0,0,0,0,0,0,
Delaware Canyon 34CD258B,Mammals,35.25,-98.36666666666666,0,0,0,0,0,0,0,0,0,0,0,0,0,0,0,0,0,0,0,0,0,0,
Delaware Canyon 34CD255PV,Mammals,35.25,-98.36666666666666,0,0,0,0,0,0,0,0,0,0,0,0,0,0,0,0,0,0,0,0,0,0,
Delaware Canyon 34CD257A,Mammals,35.25,-98.36666666666666,0,0,0,0,0,0,0,0,0,0,0,0,0,0,0,0,0,0,0,0,0,0,
Ouray Homestead,Mammals,38.36666666666667,-108.25,0,0,0,0,0,0,0,0,0,0,0,0,0,0,0,0,0,0,0,0,0,2.0,
Porcupine Cave,Mammals,38.729166666666664,-105.8613888888889,0,0,0,0,0,0,0,0,0,0,0,0,0,0,0,0,0,0,0,0,0,0,
Duckfoot [5MT3668],Mammals,37.5,-108.75,0,0,0,0,0,0,0,0,0,0,0,0,0,0,0,0,0,0,0,0,0,0,
Sand Canyon Pueblo [5MT765],Mammals,37.5,-108.75,0,0,0,0,0,0,0,0,0,0,0,0,0,0,0,0,0,0,0,0,0,0,
Green Lizard Site [5MT3901],Mammals,37.25,-108.86666666666666,0,0,0,0,0,0,0,0,0,0,0,0,0,0,0,0,0,0,0,0,0,0,
Cooper [23MN799],Mammals,39.5,-91.75,0,0,0,0,0,0,0,0,0,0,0,0,0,0,0,0,0,0,0,0,0,0,
Pigeon Roost Creek [23MN732],Mammals,39.5,-91.75,0,0,0,0,0,0,0,0,0,0,0,0,0,0,0,0,0,0,0,0,0,0,
Hosterman [39PO7],Mammals,45.0,-100.25,0,0,0,0,0,0,0,0,0,0,0,0,0,0,0,0,0,0,0,0,0,6.0,
Demery [39CO1],Mammals,45.866666666666674,-100.5,0,0,0,0,0,0,0,0,0,0,0,0,0,0,0,0,0,0,0,0,0,0,
Larson [39WW2],Mammals,45.51944444444446,-100.4125,0,0,0,0,0,0,0,0,0,0,0,0,0,0,0,0,0,0,0,0,0,8.0,
Dinehart [39LM33],Mammals,43.85472222222222,-99.3322222222222,0,0,0,0,0,0,0,0,0,0,0,0,0,0,0,0,0,0,0,0,0,1.0,
Sommers [39ST56],Mammals,44.25777777777777,-99.94666666666666,0,0,0,0,0,0,0,0,0,0,0,0,0,0,0,0,0,0,0,0,0,0,
Medicine Crow [39Bf2],Mammals,44.08055555555555,-99.51777777777781,0,0,0,0,0,0,0,0,0,0,0,0,0,0,0,0,0,0,0,0,0,2.0,
Shipman [25WT7],Mammals,40.11666666666667,-98.36666666666666,0,0,0,0,0,0,0,0,0,0,0,0,0,0,0,0,0,0,0,0,0,1.0,
Bill Packer [25SM9],Mammals,41.383333333333326,-98.75611111111111,0,0,0,0,0,0,0,0,0,0,0,0,0,0,0,0,0,0,0,0,0,0,
25FT17,Mammals,40.37777777777778,-100.2125,0,0,0,0,0,0,0,0,0,0,0,0,0,0,0,0,0,0,0,0,0,1.0,
Logan Creek [25BT3],Mammals,41.81666666666667,-96.46666666666667,0,0,0,0,0,0,0,0,0,0,0,0,0,1.0,0,2.0,0,0,0,0,0,0,
Huff [32MO11],Mammals,46.61888888888888,-100.64166666666664,0,0,0,0,0,0,0,0,0,0,0,0,0,0,0,0,0,0,0,0,0,0,
Paul Brave Site [32SI4],Mammals,45.95,-100.54166666666664,0,0,0,0,0,0,0,0,0,0,0,0,0,0,0,0,0,0,0,0,0,0,
Night Walker's Butte [32ML39],Mammals,47.5,-102.0,0,0,0,0,0,0,0,0,0,0,0,0,0,0,0,0,0,0,0,0,0,0,
Hendrickson III [32SN403],Mammals,46.72472222222222,-98.56472222222224,0,0,0,0,0,0,0,0,0,0,0,0,0,0,0,0,0,0,0,0,0,3.0,
Pretty Point [32OL8],Mammals,47.158333333333346,-100.97027777777777,0,0,0,0,0,0,0,0,0,0,0,0,0,0,0,0,0,0,0,0,0,0,
Bagnell [32OL16],Mammals,47.248333333333335,-101.0061111111111,0,0,0,0,0,0,0,0,0,0,0,0,0,0,0,0,0,0,0,0,0,0,
Mandan Lake [32OL21],Mammals,47.25,-101.17555555555552,0,0,0,0,0,0,0,0,0,0,0,0,0,0,0,0,0,0,0,0,0,0,
Ft. Clark [32ME2],Mammals,47.25333333333333,-101.27416666666667,0,0,0,0,0,0,0,0,0,0,0,0,0,0,0,0,0,0,0,0,0,0,
Cribb's Crib [13WA105],Mammals,41.36666666666667,-93.36666666666666,0,0,0,0,0,0,0,0,0,0,0,0,0,0,0,0,0,0,0,0,0,0,
Recon John Shelter,Mammals,38.5,-104.75,0,0,0,0,0,0,0,0,0,0,0,0,0,0,0,0,0,0,0,0,0,0,
Cattleguard [5AL101],Mammals,37.61666666666666,-105.5,0,0,0,0,0,0,0,0,0,0,0,0,0,0,0,0,0,0,0,0,0,0,
Holmes Terrace [24FR52],Mammals,47.61666666666666,-109.61666666666667,0,0,0,0,0,0,0,0,0,0,0,0,0,0,0,0,0,0,0,0,0,0,
Ellison's Rock [24RB1020],Mammals,46.26666666666666,-106.45,0,0,0,0,0,0,0,0,0,0,0,0,0,0,0,0,0,0,0,0,0,0,
Texas Creek Overlook [Bison Hump Shelter] [5RB2435],Mammals,39.61666666666666,-107.86666666666666,0,0,0,0,0,0,0,0,0,0,0,0,0,0,0,0,0,0,0,0,0,0,
Yarmony [5EA799],Mammals,39.866666666666674,-106.5,0,0,0,0,0,0,0,0,0,0,0,0,0,0,0,0,0,0,0,0,0,0,
McEndree Ranch [5BA30],Mammals,37.5,-102.75,0,0,0,0,0,0,0,0,0,0,0,0,0,0,0,0,0,0,0,0,0,0,
Lemoc Shelter [5MT2151],Mammals,37.5,-108.5,0,0,0,0,0,0,0,0,0,0,0,0,0,0,0,0,0,0,0,0,0,0,
Grass Mesa Village [5MT0023],Mammals,37.52778,-108.55472,0,0,0,0,0,0,0,0,0,0,0,0,0,0,0,0,0,0,0,0,0,0,
Sanford Ruin [41HC3],Mammals,35.61666666666666,-101.5,0,0,0,0,0,0,0,0,0,0,0,0,0,0,0,0,0,0,0,0,0,0,
Antonsen [24GA660],Mammals,45.65694444444445,-111.16388888888888,0,0,0,0,0,0,0,0,0,0,0,0,0,0,0,0,0,0,0,0,0,0,
Long House,Mammals,37.18694444444445,-108.5025,0,0,0,0,0,0,0,0,0,0,0,0,0,0,0,0,0,0,0,0,0,0,
Big Juniper House [1595],Mammals,37.11666666666667,-108.5,0,0,0,0,0,0,0,0,0,0,0,0,0,0,0,0,0,0,0,0,0,0,
Mug House,Mammals,37.11666666666667,-108.5,0,0,0,0,0,0,0,0,0,0,0,0,0,0,0,0,0,0,0,0,0,0,
Mesa Verde Site 875,Mammals,37.11666666666667,-108.5,0,0,0,0,0,0,0,0,0,0,0,0,0,0,0,0,0,0,0,0,0,0,
Mesa Verde Site 866,Mammals,37.11666666666667,-108.5,0,0,0,0,0,0,0,0,0,0,0,0,0,0,0,0,0,0,0,0,0,0,
Bottleneck Cave [48BH206],Mammals,44.866666666666674,-108.4,0,0,0,0,0,0,0,0,0,0,0,0,0,0,0,0,0,0,0,0,0,0,
Zesch Cave,Mammals,30.75,-99.25,0,0,0,0,0,0,0,0,0,0,0,0,0,0,0,0,0,0,0,0,0,0,
Friesenhahn Cave,Mammals,29.616666666666667,-98.36666666666666,0,0,0,0,0,0,0,0,0,0,0,0,0,0,0,0,0,0,0,0,0,0,
41TG91,Mammals,31.366666666666664,-100.5,0,0,0,0,0,0,0,0,0,0,0,0,0,0,0,0,0,0,0,0,0,0,
Beaver Creek Shelter [39CU779],Mammals,43.583333333333336,-103.5,0,0,0,0,0,0,0,0,0,0,0,0,0,0,0,0,0,0,0,0,0,0,
Lamar,Mammals,44.866666666666674,-110.25,0,0,0,0,0,0,0,0,0,0,0,0,0,0,0,0,0,0,0,0,1.0,2.0,
Ft. Randall Historic Site [39GR15],Mammals,43.0,-98.5,0,0,0,0,0,0,0,0,0,0,0,0,0,0,0,0,0,0,0,0,0,0,
Holston Vista Cave,Mammals,36.75,-81.86666666666666,0,0,0,0,0,0,0,0,0,0,0,0,0,0,0,0,0,0,0,0,0,0,
Gatecliff Shelter [26NY301],Mammals,39.0,-116.78333333333332,0,0,0,0,0,0,0,0,0,0,0,0,0,0,0,0,0,0,0,0,0,0,
University of Utah Medical Center [Utah Medical Center],Mammals,40.75,-111.75,0,0,0,0,0,0,0,0,0,0,0,0,0,0,0,0,0,0,0,0,0,0,
Stanton's Cave [Ariz C:5:3],Mammals,36.5,-111.83333333333331,0,0,0,0,0,0,0,0,0,0,0,0,0,0,0,0,0,0,0,0,0,0,
Mineral Hill Cave,Mammals,40.11666666666667,-116.0,0,0,0,0,0,0,0,0,0,0,0,0,0,0,0,0,0,0,0,0,0,0,
Kachina Cave [26WH13 (Berkeley)] [26WP69],Mammals,39.25,-114.11666666666666,0,0,0,0,0,0,0,0,0,0,0,0,0,0,0,0,0,0,0,3.0,0,3.0,
Fort Rock Cave [35LK1],Mammals,43.25,-121.0,0,0,0,0,0,0,0,0,0,0,0,0,0,0,0,0,0,0,0,0,0,0,
Connley Cave No. 5 [35LK50/5],Mammals,43.25,-121.0,0,0,0,0,0,0,0,0,0,0,0,0,0,0,0,0,0,0,0,0,0,0,
Montezuma's Head Midden 1D,Mammals,32.11666666666667,-112.7,0,0,0,0,0,0,0,0,0,0,0,0,0,0,0,0,0,0,0,0,0,0,
45AS80,Mammals,46.36666666666667,-117.11666666666666,0,0,0,0,0,0,0,0,0,0,0,0,0,0,0,0,0,0,0,0,0,0,
Last Supper Cave [26HU102],Mammals,41.61666666666666,-119.11666666666666,0,0,0,0,0,0,0,0,0,0,0,0,0,0,0,0,0,0,0,0,0,0,
Hanging Rock Shelter,Mammals,41.5,-119.36666666666666,0,0,0,0,0,0,0,0,0,0,0,0,0,0,0,0,0,0,0,0,0,0,
Sudden Shelter [45SV6],Mammals,38.7625,-111.45,0,0,0,0,0,0,0,0,0,0,0,0,0,1.0,11.0,36.0,0,14.0,8.0,0,0,0,
Papago Springs Cave,Mammals,31.616666666666667,-110.61666666666667,0,0,0,0,0,0,0,0,0,0,0,0,0,0,0,0,0,0,0,0,0,0,
Dry Cave,Mammals,32.37361111111111,-104.48194444444442,0,0,0,0,0,0,0,0,0,0,0,0,0,0,0,0,0,0,0,0,0,0,
Howell's Ridge Cave [UTEP32],Mammals,31.916666666666668,-108.5,0,0,0,0,0,0,0,0,0,0,0,0,0,0,0,0,0,0,0,0,0,0,
U-Bar Cave [LA5689],Mammals,31.4745,-108.4337,0,0,0,0,0,0,0,0,0,0,0,0,0,0,0,0,0,0,0,0,0,0,
Antelope House,Mammals,36.11666666666667,-109.5,0,0,0,0,0,0,0,0,0,0,0,0,0,0,0,0,0,0,0,0,0,0,
Owl Cave 1,Mammals,38.9,-114.05,0,0,0,0,0,0,0,0,0,0,0,0,0,0,0,0,0,0,0,0,0,0,
Owl Cave 2,Mammals,38.9,-114.05,0,0,0,0,0,0,0,0,0,0,0,0,0,0,0,0,0,0,0,0,0,0,
Sandia Cave,Mammals,35.25833333333333,-106.4,0,0,0,0,0,0,0,0,0,0,0,0,0,0,0,0,0,0,0,0,0,0,
Ridge Village South [26LA1104],Mammals,39.61666666666666,-116.75,0,0,0,0,0,0,0,0,0,0,0,0,0,0,0,0,0,0,0,0,0,0,
Dead Pile Village [26LA1105],Mammals,39.61666666666666,-116.75,0,0,0,0,0,0,0,0,0,0,0,0,0,0,0,0,0,0,0,0,0,2.0,
Grass Valley Tom's [26LA1106],Mammals,39.61666666666666,-116.75,0,0,0,0,0,0,0,0,0,0,0,0,0,0,0,0,0,0,0,0,0,2.0,
Bonnell,Mammals,32.36666666666667,-105.36666666666666,0,0,0,0,0,0,0,0,0,0,0,0,0,0,0,0,0,0,0,0,0,0,
Arroyo Hondo Pueblo,Mammals,35.5,-105.86666666666666,0,0,0,0,0,0,0,0,0,0,0,0,0,0,0,0,0,0,0,0,0,16.0,
Charlie Lake Cave [HbRf39],Mammals,56.276388888888896,-120.9375,0,0,0,0,0,0,0,0,0,0,0,0,0,0,0,0,0,0,0,0,0,0,
James Creek Shelter [26EU843],Mammals,40.75,-116.25,0,0,0,0,0,0,0,0,0,0,0,0,0,0,0,0,0,0,0,0,0,0,
Snaketown [U:13:1],Mammals,33.18388888888889,-111.9175,0,0,0,0,0,0,0,0,0,0,0,0,0,0,0,0,0,0,0,0,10.0,0,
Folsom,Mammals,36.75,-103.86666666666666,0,0,0,0,0,0,0,0,0,0,0,0,0,0,0,0,0,0,0,0,0,0,
Black Mesa D:7:0216,Mammals,36.5,-110.25,0,0,0,0,0,0,0,0,0,0,0,0,0,0,0,0,0,0,0,0,0,0,
Black Mesa D:11:2030,Mammals,36.36666666666667,-110.36666666666666,0,0,0,0,0,0,0,0,0,0,0,0,0,0,0,0,0,0,0,0,0,0,
Black Mesa D:11:0275,Mammals,36.36666666666667,-110.25,0,0,0,0,0,0,0,0,0,0,0,0,0,0,0,0,0,0,0,0,0,0,
Grasshopper Pueblo [P:14:1],Mammals,34.08333333333333,-110.66666666666669,0,0,0,0,0,0,0,0,0,0,0,0,0,0,0,0,0,0,0,0,0,0,
Albuquerque [Albequerque Sand and Gravel Products Company],Mammals,35.0,-106.5,0,0,0,0,0,0,0,0,0,0,0,0,0,0,0,0,0,0,0,0,0,0,
Slick Rock Village [4Tul10],Mammals,36.36666666666667,-118.86666666666666,0,0,0,0,0,0,0,0,0,0,0,0,0,0,0,0,0,0,0,0,0,0,
Rancho La Brea,Mammals,34.062945,-118.35599500000001,0,0,0,0,0,0,0,0,0,0,0,0,0,0,0,0,0,0,0,0,0,0,
Conkling Cavern [Beasley Cave] [LACM 10091],Mammals,32.25,-106.5,0,0,0,0,0,0,0,0,0,0,0,0,0,0,0,0,0,0,0,0,0,0,
Dark Canyon Cave,Mammals,32.25,-104.5,0,0,0,0,0,0,0,0,0,0,0,0,0,0,0,0,0,0,0,0,0,0,
The Khulo [MALB 21],Mammals,32.0,-107.0,0,0,0,0,0,0,0,0,0,0,0,0,0,0,0,0,0,0,0,0,0,0,
Muwu [CA-Ven-11],Mammals,34.03333333333334,-119.0,0,0,0,0,0,0,0,0,0,0,0,0,0,0,0,0,0,0,0,0,0,0,
Newark Cave [26WP107],Mammals,39.75,-115.61666666666667,0,0,0,0,0,0,0,0,0,0,0,0,0,0,0,0,0,0,0,0,0,0,
Antelope Cave [SBC1.10.10],Mammals,35.36666666666667,-115.5,0,0,0,0,0,0,0,0,0,0,0,0,0,0,0,0,0,0,0,0,0,0,
Kokoweef Cave [SBC1.11.13],Mammals,35.416666666666664,-115.5,0,0,0,0,0,0,0,0,0,0,0,0,0,0,0,0,0,0,0,0,0,0,
Mitchell Caverns [LACM 3497],Mammals,34.866666666666674,-115.5,0,0,0,0,0,0,0,0,0,0,0,0,0,0,0,0,0,0,0,0,0,0,
Daggett Solid Waste Locality [1.76.33],Mammals,34.88333333333333,-116.83333333333331,0,0,0,0,0,0,0,0,0,0,0,0,0,0,0,0,0,0,0,0,0,0,
Mercer Cave [UCMPV67108],Mammals,38.15166666666667,-120.47666666666667,0,0,0,0,0,0,0,0,0,0,0,0,0,0,0,0,0,0,0,0,0,0,
Chief Joseph Dam Site 45OK4,Mammals,48.11666666666667,-119.11666666666666,0,0,0,0,0,0,0,0,0,0,0,0,0,0,0,0,0,0,0,0,0,0,
Chief Joseph Dam Site 45OK250,Mammals,48.11666666666667,-119.11666666666666,0,0,0,0,0,0,0,0,0,0,0,0,0,0,0,0,0,0,0,0,0,0,
Chief Joseph Dam Site 45DO273,Mammals,48.0,-119.36666666666666,0,0,0,0,0,0,0,0,0,0,0,0,0,0,0,0,0,0,0,0,0,0,
Chief Joseph Dam Site 45DO326,Mammals,48.0,-119.36666666666666,0,0,0,0,0,0,0,0,0,0,0,0,0,0,0,0,0,0,0,0,0,0,
Chief Joseph Dam Site 45OK258,Mammals,48.11666666666667,-119.11666666666666,0,0,0,0,0,0,0,0,0,0,0,0,0,0,0,0,0,0,0,0,0,0,
Chief Joseph Dam Site 45OK11,Mammals,48.11666666666667,-119.11666666666666,0,0,0,0,0,0,0,0,0,0,0,0,0,0,0,0,0,0,0,0,0,0,
Chief Joseph Dam Site 45DO211,Mammals,48.0,-119.0,0,0,0,0,0,0,0,0,0,0,0,0,0,0,0,0,0,0,0,0,0,0,
Chief Joseph Dam Site 45DO285,Mammals,48.0,-119.0,0,0,0,0,0,0,0,0,0,0,0,0,0,0,0,0,0,0,0,0,0,0,
Chief Joseph Dam Site 45DO214,Mammals,48.0,-119.0,0,0,0,0,0,0,0,0,0,0,0,0,0,0,0,0,0,0,0,0,0,0,
Applegate River Site 35JA42 [35JA42],Mammals,42.0,-123.0,0,0,0,0,0,0,0,0,0,0,0,0,0,0,0,0,0,0,0,0,0,0,
Judd Peak South [45LE225S],Mammals,46.5,-121.86666666666666,0,0,0,0,0,0,0,0,0,0,0,0,0,0,0,0,0,0,0,0,0,0,
Snake Rock Village,Mammals,38.75,-111.25,0,0,0,0,0,0,0,0,0,0,0,0,0,0,0,0,0,0,0,0,0,0,
Nephi Mound 1 [42Jb2],Mammals,39.75,-111.75,0,0,0,0,0,0,0,0,0,0,0,0,0,0,0,0,0,0,0,0,0,0,
Caldwell Village [42Un95],Mammals,40.36666666666667,-109.75,0,0,0,0,0,0,0,0,0,0,0,0,0,0,0,0,0,0,0,0,0,0,
Potosi Mountain Midden 2,Mammals,36.0,-115.38333333333334,0,0,0,0,0,0,0,0,0,0,0,0,0,0,0,0,0,0,0,0,0,0,
Malad Hill [10-Oa-2],Mammals,42.25,-112.11666666666666,0,0,0,0,0,0,0,0,0,0,0,0,0,0,0,0,0,0,0,0,0,0,
Squaw Creek Rockshelter,Mammals,45.0,-116.75,0,0,0,0,0,0,0,0,0,0,0,0,0,0,0,0,0,0,0,0,0,0,
Bernard Creek Rockshelter [10Ih483],Mammals,45.36666666666667,-116.5,0,0,0,0,0,0,0,0,0,0,0,0,0,0,0,0,0,0,0,0,0,0,
Red Lake Wash Site NA 5150,Mammals,35.36666666666667,-112.11666666666666,0,0,0,0,0,0,0,0,0,0,0,0,0,0,0,0,0,0,0,0,0,0,
Red Lake Wash Site NA 5161,Mammals,35.36666666666667,-112.11666666666666,0,0,0,0,0,0,0,0,0,0,0,0,0,0,0,0,0,0,0,0,0,0,
Innocents Ridge [42EM6],Mammals,39.08333333333333,-111.03333333333332,0,0,0,0,0,0,0,0,0,0,0,0,0,0,0,0,0,0,0,0,0,0,
Cascadia Cave [35LIN11],Mammals,44.36666666666667,-122.36666666666666,0,0,0,0,0,0,0,0,0,0,0,0,0,0,2.0,0,0,0,0,0,0,0,
Weis Rockshelter [10IH66],Mammals,45.866666666666674,-116.25,0,0,0,0,0,0,0,0,0,0,0,0,0,0,0,0,0,0,0,0,0,0,
Clyde's Cavern [42EM177],Mammals,39.0,-110.75,0,0,0,0,0,0,0,0,0,0,0,0,0,0,0,0,0,0,2.0,0,8.0,6.0,
Spotten Cave [42UT104],Mammals,40.0,-111.75,0,0,0,0,0,0,0,0,0,0,0,0,0,0,0,0,0,1.0,1.0,0,5.0,11.0,
Woodard Mound [42UT102],Mammals,40.0,-111.86666666666666,0,0,0,0,0,0,0,0,0,0,0,0,0,0,0,0,0,0,0,0,4.0,4.0,
Seamons Mound [42UT271],Mammals,40.11666666666667,-111.61666666666667,0,0,0,0,0,0,0,0,0,0,0,0,0,0,0,0,0,0,0,0,0,0,
Civa Shelter II [26LN1590],Mammals,38.0,-115.36666666666666,0,0,0,0,0,0,0,0,0,0,0,0,0,0,0,0,0,0,0,0,0,0,
Avocado Rockshelter [26NY1263],Mammals,38.11666666666667,-115.61666666666667,0,0,0,0,0,0,0,0,0,0,0,0,0,0,0,0,0,0,0,0,0,0,
Slivovitz Shelter [26NY1272],Mammals,38.11666666666667,-115.61666666666667,0,0,0,0,0,0,0,0,0,0,0,0,0,0,0,0,0,0,0,0,0,0,
Haile 14A,Mammals,29.7,-82.56666666666668,0,0,0,0,0,0,0,0,0,0,0,0,0,0,0,0,0,0,0,0,0,0,
Surprise Cave [Gravely No. 3] [8AL72],Mammals,29.616666666666667,-82.5,0,0,0,0,0,0,0,0,0,0,0,0,0,0,0,0,0,0,0,0,0,0,
American Falls,Mammals,42.75,-112.86666666666666,0,0,0,0,0,0,0,0,0,0,0,0,0,0,0,0,0,0,0,0,0,0,
Klamath Shoal Midden [Salt Cave Locality Site 7] [35KL21],Mammals,42.0,-122.11666666666666,0,0,0,0,0,0,0,0,0,0,0,0,0,0,0,0,0,0,0,0,0,0,
Gooseneck [23CT54],Mammals,38.81666666666667,-90.95,0,0,0,0,0,0,0,0,0,0,0,0,0,0,0,0,0,0,0,0,0,0,
Aubrey [41DN479],Mammals,33.25,-96.86666666666666,0,0,0,0,0,0,0,0,0,0,0,0,0,0,0,0,0,0,0,0,0,0,
Kimmswick,Mammals,38.379444444444445,-90.38472222222221,0,0,0,0,0,0,0,0,0,0,0,0,0,0,0,0,0,0,0,0,0,0,
Berrien Springs Jail House,Mammals,41.866666666666674,-86.25,0,0,0,0,0,0,0,0,0,0,0,0,0,0,0,0,0,0,0,0,0,0,
Campbell Hollow [11ST144],Mammals,39.61666666666666,-90.5,0,0,0,0,0,0,0,0,0,0,0,0,0,0,0,0,0,0,0,0,0,0,
Hall's Cave [41KR474] [41229],Mammals,30.13333333333333,-99.54166666666663,0,0,0,0,0,0,0,0,0,0,0,0,0,0,0,0,0,0,0,0,0,0,
Wilson-Leonard [41WM235],Mammals,30.5,-97.75,0,0,0,0,0,0,0,0,0,0,0,0,0,0,0,0,0,0,0,0,0,0,
Hoxie Farm [11CK4],Mammals,41.57888888888888,-87.5925,0,0,0,0,0,0,0,0,0,0,0,0,0,0,0,0,0,0,0,0,0,0,
Vossburg [21FA2],Mammals,43.75,-94.11666666666666,0,0,0,0,0,0,0,0,0,0,0,0,0,0,0,0,0,0,0,0,0,4.0,
Big Slough [21MU1],Mammals,43.866666666666674,-95.75,0,0,0,0,0,0,0,0,0,0,0,0,0,0,0,0,0,0,0,0,0,0,
Duck Point [Carr-Trimble],Mammals,42.61666666666666,-112.86666666666666,0,0,0,0,0,0,0,0,0,0,0,0,0,0,0,0,0,0,0,0,0,0,
Seed Cave [45FR46],Mammals,46.5,-118.61666666666667,0,0,0,0,0,0,0,0,0,0,0,0,0,0,0,0,0,0,0,0,0,0,
Miller [45FR5],Mammals,46.25,-119.0,0,0,0,0,0,0,0,0,0,0,0,0,0,0,0,0,0,0,0,0,0,0,
Toquima Cave [Potts Cave],Mammals,39.18333333333333,-117.0,0,0,0,0,0,0,0,0,0,0,0,0,0,0,0,0,0,0,0,0,0,0,
Butler Ranch Cave [NY303],Mammals,39.0,-116.5,0,0,0,0,0,0,0,0,0,0,0,0,0,0,0,0,0,0,0,0,0,0,
Jeans Spring Shelter [NY302],Mammals,39.0,-116.86666666666666,0,0,0,0,0,0,0,0,0,0,0,0,0,0,0,0,0,0,0,0,0,0,
NY1059,Mammals,38.866666666666674,-116.75,0,0,0,0,0,0,0,0,0,0,0,0,0,0,0,0,0,0,0,0,0,0,
Hunts Canyon Shelter [NY1158],Mammals,38.5,-116.75,0,0,0,0,0,0,0,0,0,0,0,0,0,0,0,0,0,0,0,0,0,0,
Bradshaw Shelter [ES81],Mammals,37.75,-117.25,0,0,0,0,0,0,0,0,0,0,0,0,0,0,0,0,0,0,0,0,0,0,
Triple T Shelter [NY345],Mammals,39.0,-116.86666666666666,0,0,0,0,0,0,0,0,0,0,0,0,0,0,0,0,0,0,0,0,0,0,
Council Hall Cave [26WP229],Mammals,39.333333333333336,-114.16666666666666,0,0,0,0,0,0,0,0,0,0,0,0,0,0,0,0,0,0,0,0,0,0,
Raven Camp,Mammals,37.5841472222222,-118.236488888889,0,0,0,0,0,0,0,0,0,0,0,0,0,0,0,0,0,0,0,0,0,0,
Crooked Forks,Mammals,37.5841472222222,-118.236488888889,0,0,0,0,0,0,0,0,0,0,0,0,0,0,0,0,0,0,0,0,0,0,
Short Stop,Mammals,37.5841472222222,-118.236488888889,0,0,0,0,0,0,0,0,0,0,0,0,0,0,0,0,0,0,0,0,0,0,
Rancho Deluxe,Mammals,37.5841472222222,-118.236488888889,0,0,0,0,0,0,0,0,0,0,0,0,0,0,0,0,0,0,0,0,0,0,
Midway,Mammals,37.5841472222222,-118.236488888889,0,0,0,0,0,0,0,0,0,0,0,0,0,0,0,0,0,0,0,0,0,0,
