Site,Type,Latitude,Longitude,22000-21000,21000-20000,20000-19000,19000-18000,18000-17000,17000-16000,16000-15000,15000-14000,14000-13000,13000-12000,12000-11000,11000-10000,10000-9000,9000-8000,8000-7000,7000-6000,6000-5000,5000-4000,4000-3000,3000-2000,2000-1000,1000-present
Jones-Miller,Mammals,39.866666666666674,-102.11666666666666,0,0,0,0,0,0,0,0,0,0,0,0,0,0,0,0,0,0,0,0,0,0,
Deadman's Shelter [41SW23],Mammals,34.5,-101.36666666666666,0,0,0,0,0,0,0,0,0,0,0,0,0,0,0,0,0,0,0,0,0,0,
Jaguar Cave [Cave No. 2],Mammals,44.28138888888888,-112.91527777777776,0,0,0,0,0,0,0,0,0,0,0,2.0,0,0,0,0,0,0,0,0,0,0,
Little Box Elder Cave [48CO287],Mammals,42.61666666666666,-105.61666666666667,0,0,0,0,0,0,0,0,0,0,0,0,0,0,0,0,0,0,0,0,0,0,
Baker Bluff Cave,Mammals,36.45833333333334,-82.46666666666667,0,0,3.0,0,0,0,0,0,0,0,3.0,1.0,0,0,0,0,0,0,0,0,0,0,
Ladd's Quarry,Mammals,34.15,-84.83333333333333,0,0,0,0,0,0,0,0,0,0,0,0,0,0,0,0,0,0,0,0,0,0,
Brynjulfson Cave #1,Mammals,38.85194444444445,-92.28055555555555,0,0,0,0,0,0,0,0,0,0,0,0,0,0,0,0,0,0,0,0,0,0,
Wilson Butte Cave [10Je6],Mammals,42.766666666666666,-114.21666666666664,0,0,0,0,0,0,0,0,0,0,0,0,0,0,0,0,0,0,0,0,0,0,
Samwell Cave,Mammals,40.916911,-122.23787,0,0,0,0,0,0,0,0,0,0,0,0,0,0,0,0,0,0,0,0,0,0,
Etowah,Mammals,34.08333333333333,-84.83333333333333,0,0,0,0,0,0,0,0,0,0,0,0,0,0,0,0,0,0,0,0,0,0,
Arnold Research Cave [23CY64],Mammals,38.73333333333333,-91.75,0,0,0,0,0,0,0,0,0,0,0,0,0,0,0,0,0,0,0,0,0,0,
Ripplemead Quarry,Mammals,37.25,-80.86666666666666,0,0,0,0,0,0,0,0,0,0,0,0,0,0,0,0,0,0,0,0,0,0,
Cheek Bend Cave [40MU261],Mammals,35.5,-86.86666666666666,0,0,0,0,0,0,0,0,0,0,0,0,0,0,0,0,0,0,0,0,0,0,
Bell Cave [ACb-2],Mammals,34.72944444444445,-87.79222222222221,0,0,0,0,0,0,0,0,0,0,0,0,0,0,0,0,0,0,0,0,0,0,
Bronco Charlie [26EK801],Mammals,41.0,-115.0,0,0,0,0,0,0,0,0,0,0,0,0,0,0,0,0,0,0,0,0,0,0,
Smith Creek Cave [26WP46],Mammals,39.333333333333336,-114.08333333333331,0,0,0,0,0,0,0,0,0,0,0,0,0,0,0,0,0,0,0,0,0,0,
Snake Creek Burial Cave,Mammals,38.866666666666674,-114.11666666666666,0,0,0,0,0,0,0,0,0,0,0,0,0,0,0,0,0,0,0,0,0,0,
Hidden Cave [NV-Ch-16 (Berkeley)] [26CH16],Mammals,39.36666666666667,-118.61666666666667,0,0,0,0,0,0,0,0,0,0,0,0,0,0,0,0,0,0,0,0,0,0,
Levi Shelter [41TV49],Mammals,30.35833333333334,-98.10000000000002,0,0,0,0,0,0,0,0,0,0,0,0,0,0,0,0,0,0,0,0,0,0,
Miller's Cave,Mammals,30.586666666666662,-98.63666666666668,0,0,0,0,0,0,0,0,0,0,0,0,0,0,0,0,0,0,0,0,0,0,
Schulze Cave,Mammals,30.25,-99.86666666666666,0,0,0,0,0,0,0,0,0,0,0,0,0,0,0,0,0,0,0,0,0,0,
Cave Without A Name,Mammals,29.883333333333336,-98.61666666666667,0,0,0,0,0,0,0,0,0,0,0,0,0,0,0,0,0,0,0,0,0,0,
Baker Cave [41VV213],Mammals,29.983333333333334,-101.1,0,0,0,0,0,0,0,0,0,0,0,0,0,0,0,0,0,0,0,0,0,3.0,
Hinds Cave [41VV456],Mammals,29.89138888888889,-101.44,0,0,0,0,0,0,0,0,0,0,0,0,0,0,0,0,0,0,0,0,0,0,
Lawrence [34NW-6],Mammals,36.61666666666666,-95.5,0,0,0,0,0,0,0,0,0,0,0,0,0,0,0,0,0,0,0,0,0,0,
Brynjulfson Cave #2,Mammals,38.866666666666674,-92.25,0,0,0,0,0,0,0,0,0,0,0,0,0,0,0,0,0,0,0,0,0,0,
Roberts Buffalo Jump [5LR100],Mammals,40.61666666666666,-105.25,0,0,0,0,0,0,0,0,0,0,0,0,0,0,0,0,0,0,0,0,0,0,
King Hill Site [23BN1],Mammals,39.75,-94.75,0,0,0,0,0,0,0,0,0,0,0,0,0,0,0,0,0,0,0,0,0,0,
Pictograph Cave [Inscription Cave] [24YL1],Mammals,45.61666666666666,-108.36666666666666,0,0,0,0,0,0,0,0,0,0,0,0,0,0,0,0,0,0,0,0,0,0,
Lemoc Shelter [5MT2151],Mammals,37.5,-108.5,0,0,0,0,0,0,0,0,0,0,0,0,0,0,0,0,0,0,0,0,0,0,
Grass Mesa Village [5MT0023],Mammals,37.52778,-108.55472,0,0,0,0,0,0,0,0,0,0,0,0,0,0,0,0,0,0,0,0,0,0,
Gilbert [41RA13],Mammals,32.866666666666674,-95.75,0,0,0,0,0,0,0,0,0,0,0,0,0,0,0,0,0,0,0,0,0,0,
Laubach Cave No. 3 [Inner Space Cavern] [41343],Mammals,30.616666666666667,-97.61666666666667,0,0,0,0,0,0,0,0,0,0,0,0,0,0,0,0,0,0,0,0,0,0,
Centipede Cave [41VV190],Mammals,29.75,-101.45,0,0,0,0,0,0,0,0,0,0,0,0,0,0,0,0,0,0,0,0,0,0,
Damp Cave [41VV189],Mammals,29.75,-101.36666666666666,0,0,0,0,0,0,0,0,0,0,0,0,0,0,0,0,0,0,0,0,0,0,
Haystack Cave [5GN189],Mammals,38.36666666666667,-107.11666666666666,0,0,0,0,0,0,0,0,0,0,0,0,0,0,0,0,0,0,0,0,0,0,
Anderson [40WM9],Mammals,35.866666666666674,-86.86666666666666,0,0,0,0,0,0,0,0,0,0,0,0,0,0,0,0,0,0,0,0,0,0,
Walker-Hooper [47GL65],Mammals,43.5,-89.0,0,0,0,0,0,0,0,0,0,0,0,0,0,0,0,0,0,0,0,0,0,0,
Hogup Cave,Mammals,41.36666666666667,-113.11666666666666,0,0,0,0,0,0,0,0,0,0,0,0,0,0,0,1.0,0,1.0,0,0,0,1.0,
Connley Cave No. 5 [35LK50/5],Mammals,43.25,-121.0,0,0,0,0,0,0,0,0,0,0,0,0,0,0,0,0,0,0,0,0,0,0,
Ventana Cave [AZ Z:12:5],Mammals,32.333333333333336,-112.23333333333332,0,0,0,0,0,0,0,0,0,0,0,0,0,0,0,0,0,0,0,0,0,0,
Last Supper Cave [26HU102],Mammals,41.61666666666666,-119.11666666666666,0,0,0,0,0,0,0,0,0,0,0,0,0,0,0,0,0,0,0,0,0,0,
Deadman Cave,Mammals,32.36666666666667,-110.75,0,0,0,0,0,0,0,0,0,0,0,0,0,0,0,0,0,0,0,0,0,0,
Point of Pines,Mammals,33.25,-109.61666666666667,0,0,0,0,0,0,0,0,0,0,0,0,0,0,0,0,0,0,0,0,0,0,
Dry Cave,Mammals,32.37361111111111,-104.48194444444442,0,0,0,0,0,0,0,0,0,0,0,0,0,0,0,0,0,0,0,0,0,0,
Howell's Ridge Cave [UTEP32],Mammals,31.916666666666668,-108.5,0,0,0,0,0,0,0,0,0,0,0,0,0,0,0,0,0,0,0,0,0,0,
Ezra's Retreat [26HU300],Mammals,41.5,-117.11666666666666,0,0,0,0,0,0,0,0,0,0,0,0,0,0,0,0,0,0,0,0,0,0,
Lovelock Cave [26CH18],Mammals,39.961666666666666,-118.55694444444444,0,0,0,0,0,0,0,0,0,0,0,0,0,0,0,0,0,0,0,0,0,0,
Shelter Cave,Mammals,32.1833333333333,-106.6,0,0,0,0,0,0,0,0,0,0,0,0,0,0,0,0,0,0,0,0,0,0,
Rancho La Brea,Mammals,34.062945,-118.35599500000001,0,0,0,0,0,0,0,0,0,0,0,0,0,0,0,0,0,0,0,0,0,0,
Conkling Cavern [Beasley Cave] [LACM 10091],Mammals,32.25,-106.5,0,0,0,0,0,0,0,0,0,0,0,0,0,0,0,0,0,0,0,0,0,0,
Antelope Cave [SBC1.10.10],Mammals,35.36666666666667,-115.5,0,0,0,0,0,0,0,0,0,0,0,0,0,0,0,0,0,0,0,0,0,0,
Kokoweef Cave [SBC1.11.13],Mammals,35.416666666666664,-115.5,0,0,0,0,0,0,0,0,0,0,0,0,0,0,0,0,0,0,0,0,0,0,
McKittrick [UCMP 1370],Mammals,35.31666666666666,-119.61666666666667,0,0,0,0,0,0,0,0,0,0,0,0,0,0,0,0,0,0,0,0,0,0,
Quien Sabe Cave [UCRRV64-34],Mammals,35.416666666666664,-115.5,0,0,0,0,0,0,0,0,0,0,0,0,0,0,0,0,0,0,0,0,0,0,
Carpinteria [LACM 139],Mammals,34.38583333333333,-119.505,0,0,0,0,0,0,0,0,0,0,0,0,0,0,0,0,0,0,0,0,0,0,
Civa Shelter II [26LN1590],Mammals,38.0,-115.36666666666666,0,0,0,0,0,0,0,0,0,0,0,0,0,0,0,0,0,0,0,0,0,0,
Devil's Den,Mammals,29.366666666666664,-82.36666666666666,0,0,0,0,0,0,0,0,0,0,0,0,0,0,0,0,0,0,0,0,0,0,
Cutler Hammock [Cutler Fossil Site] [8DA2001],Mammals,25.61111111111111,-80.30972222222223,0,0,0,0,0,0,0,0,0,0,0,0,0,0,0,0,0,0,0,0,0,0,
Vero,Mammals,27.65,-80.40416666666665,0,0,0,0,0,0,0,0,0,0,0,0,0,0,0,0,0,0,0,0,0,0,
Melbourne [Golf Course Locality],Mammals,28.066666666666663,-82.68333333333332,0,0,0,0,0,0,0,0,0,0,0,0,0,0,0,0,0,0,0,0,0,0,
Seminole Field,Mammals,27.8,-82.75,0,0,0,0,0,0,0,0,0,0,0,0,0,0,0,0,0,0,0,0,0,0,
Waccasassa River 2B and 3A,Mammals,29.25,-82.61666666666667,0,0,0,0,0,0,0,0,0,0,0,0,0,0,0,0,0,0,0,0,0,0,
Reddick 1A,Mammals,29.366666666666664,-82.18333333333334,0,0,0,0,0,0,0,0,0,0,0,0,0,0,0,0,0,0,0,0,0,0,
Haile 11B,Mammals,29.7,-82.56666666666668,0,0,0,0,0,0,0,0,0,0,0,0,0,0,0,0,0,0,0,0,0,0,
Nichol's Hammock,Mammals,25.533333333333335,-80.41666666666667,0,0,0,0,0,0,0,0,0,0,0,0,0,0,0,0,0,0,0,0,0,2.0,
Monkey Jungle Hammock,Mammals,25.566666666666663,-80.43333333333334,0,0,0,0,0,0,0,0,0,0,0,0,0,0,0,0,0,0,0,0,0,0,
Horr's Island [8CR209],Mammals,25.866666666666667,-81.61666666666667,0,0,0,0,0,0,0,0,0,0,0,0,0,0,0,0,0,0,0,0,0,0,
Fair-to-Middl'in Well Pit,Mammals,38.08333333333333,-86.11666666666666,0,0,0,0,0,0,0,0,0,0,0,0,0,0,0,0,0,0,0,0,0,0,
Carcass Crypt Cave,Mammals,38.75,-86.5,0,0,0,0,0,0,0,0,0,0,0,0,0,0,0,0,0,0,0,0,0,0,
Indun Rockshelter [12MO350],Mammals,39.11666666666667,-86.5,0,0,0,0,0,0,0,0,0,0,0,0,0,0,0,0,0,0,0,0,0,0,
Sullivan's Cave,Mammals,38.866666666666674,-86.61666666666667,0,0,0,0,0,0,0,0,0,0,0,0,0,0,0,0,0,0,0,0,0,0,
Freeman's Pit,Mammals,39.11666666666667,-86.61666666666667,0,0,0,0,0,0,0,0,0,0,0,0,0,0,0,0,0,0,0,0,0,0,
Tick Creek Cave [23PH145],Mammals,37.866666666666674,-91.86666666666666,0,0,0,0,0,0,0,0,0,0,0,0,0,0,0,0,0,0,0,0,0,0,
Crankshaft Cave,Mammals,38.36666666666667,-90.5,0,0,0,0,0,0,0,0,0,0,0,0,0,0,0,0,0,0,0,0,0,0,
Pot Shelter [23CR149],Mammals,38.1,-91.16666666666666,0,0,0,0,0,0,0,0,0,0,0,0,0,0,0,0,0,0,0,0,0,0,
Rodgers Shelter [23BE125],Mammals,38.08888888888888,-93.35000000000002,0,0,0,0,0,0,0,0,0,0,0,0,0,0,0,0,0,0,0,0,0,0,
Meyer Cave,Mammals,38.39666666666666,-90.25388888888888,0,0,0,0,0,0,0,0,0,0,0,0,0,0,0,0,0,0,0,0,0,0,
Burkemper [23LN104],Mammals,38.866666666666674,-90.75,0,0,0,0,0,0,0,0,0,0,0,0,0,0,0,0,0,0,0,0,0,0,
Modoc Rock Shelter [11RA501],Mammals,38.0625,-90.06416666666667,0,0,0,0,0,0,0,0,0,0,0,0,0,0,0,0,0,0,0,0,0,0,
