Site,Type,Latitude,Longitude,22000-21000,21000-20000,20000-19000,19000-18000,18000-17000,17000-16000,16000-15000,15000-14000,14000-13000,13000-12000,12000-11000,11000-10000,10000-9000,9000-8000,8000-7000,7000-6000,6000-5000,5000-4000,4000-3000,3000-2000,2000-1000,1000-present
Lubbock Lake [41LU1],Mammals,33.62041666666667,-101.89208333333336,0,0,0,0,0,0,0,0,0,0,0,0,0,0,0,0,0,0,0,0,0,0,
Peccary Cave,Mammals,35.866666666666674,-93.0,0,0,0,0,0,5.0,0,0,0,0,0,0,0,0,0,0,0,0,0,13.0,0,0,
Cahokia,Mammals,38.66277777777778,-90.08805555555556,0,0,0,0,0,0,0,0,0,0,0,0,0,0,0,0,0,0,0,0,0,0,
New Paris #4 [Lloyd's Rock Hole],Mammals,40.08333333333333,-78.65,0,0,0,0,0,0,0,0,0,0,16.0,0,0,0,0,0,0,0,0,0,0,0,
Eagle Cave [Eagle Rock Cave],Mammals,38.833333333333336,-79.28333333333333,0,0,0,0,0,0,0,0,0,0,0,0,0,0,0,0,0,0,0,0,0,0,
Natural Chimneys,Mammals,38.36666666666667,-78.08333333333333,0,0,0,0,0,0,0,0,0,0,0,0,0,0,0,0,0,0,0,0,0,0,
Clark's Cave,Mammals,38.0861111111111,-79.65694444444445,0,0,0,0,0,0,0,0,0,0,0,0,0,0,0,0,0,0,0,0,0,0,
Baker Bluff Cave,Mammals,36.45833333333334,-82.46666666666667,0,0,50.0,0,0,0,0,0,0,0,176.0,141.0,0,0,0,0,0,0,0,0,0,0,
Robinson Cave,Mammals,36.29027777777778,-85.3736111111111,0,0,0,0,0,0,0,0,0,0,0,0,0,0,0,0,0,0,0,0,0,0,
Ladd's Quarry,Mammals,34.15,-84.83333333333333,0,0,0,0,0,0,0,0,0,0,0,0,0,0,0,0,0,0,0,0,0,0,
Schultz,Mammals,43.383333333333326,-83.98333333333333,0,0,0,0,0,0,0,0,0,0,0,0,0,0,0,0,0,0,0,0,0,0,
Raddatz Rockshelter [SK5],Mammals,43.35,-89.93333333333334,0,0,0,0,0,0,0,0,0,0,0,0,0,0,0,0,0,0,0,0,0,0,
Strait Canyon,Mammals,38.47055555555555,-79.51166666666667,0,0,0,0,0,0,0,0,0,0,0,0,0,0,0,0,0,0,0,0,0,0,
Loop Creek Quarry Cave,Mammals,37.0,-81.86666666666666,0,0,0,0,0,0,0,0,0,0,0,0,0,0,0,0,0,0,0,0,0,0,
Back Creek Cave 1,Mammals,38.06666666666666,-79.89166666666668,0,0,0,0,0,0,0,0,0,0,0,0,0,0,0,0,0,0,0,0,0,0,
Cheek Bend Cave [40MU261],Mammals,35.5,-86.86666666666666,0,0,0,0,0,0,0,0,0,0,0,0,0,0,0,0,0,0,0,0,0,0,
Darty Cave,Mammals,36.69444444444444,-82.4713888888889,0,0,0,0,0,0,0,0,0,0,0,0,0,0,0,0,0,0,0,0,0,0,
Pabst,Mammals,40.17111111111111,-88.83527777777778,0,0,0,0,0,0,0,0,0,0,0,0,0,0,0,0,0,0,0,0,0,0,
Drew [36AL62],Mammals,40.367777777777775,-80.11888888888888,0,0,0,0,0,0,0,0,0,0,0,0,0,0,0,0,0,0,0,0,0,0,
Meadowcroft Rockshelter [36WH297],Mammals,40.28666666666667,-80.48333333333335,0,0,0,0,0,0,0,0,0,0,0,0,0,0,0,0,0,0,0,0,0,0,
Howard Ranch,Mammals,34.36666666666667,-99.75,0,0,0,0,0,0,0,0,0,0,0,0,0,0,0,0,0,0,0,0,0,0,
Miller's Cave,Mammals,30.586666666666662,-98.63666666666668,0,0,0,0,0,0,0,0,0,0,0,0,0,0,0,0,0,0,0,0,0,0,
Schulze Cave,Mammals,30.25,-99.86666666666666,0,0,0,0,0,0,0,0,0,0,0,0,0,0,0,0,0,0,0,0,0,0,
Cave Without A Name,Mammals,29.883333333333336,-98.61666666666667,0,0,0,0,0,0,0,0,0,0,0,0,0,0,0,0,0,0,0,0,0,0,
Avenue,Mammals,30.25,-97.75,0,0,0,0,1.0,0,0,0,0,1.0,0,0,0,0,0,0,0,0,0,0,0,0,
Domebo,Mammals,34.866666666666674,-98.25,0,0,0,0,0,0,0,0,0,0,0,0,0,0,0,0,0,0,0,0,0,0,
New Paris #2,Mammals,40.08333333333333,-78.65,0,0,0,0,0,0,0,0,0,0,0,0,0,0,0,0,0,0,0,0,0,0,
Gnagey [36SO55],Mammals,40.0,-78.86666666666666,0,0,0,0,0,0,0,0,0,0,0,0,0,0,0,0,0,0,0,0,0,0,
Robert,Mammals,37.016666666666666,-100.36666666666666,0,0,0,0,0,0,0,0,0,0,0,0,0,0,0,0,0,0,0,0,0,0,
Schmidt [25HW301],Mammals,41.25,-98.5,0,0,0,0,0,0,0,0,0,0,0,0,0,0,0,0,0,0,0,0,0,1.0,
Smith Falls Local Fauna,Mammals,42.75,-100.11666666666666,0,0,0,0,0,0,0,0,0,0,2.0,0,0,0,0,0,0,0,0,0,0,0,
Litchfield Local Fauna [SM-102],Mammals,41.11666666666667,-99.11666666666666,0,0,0,0,0,0,0,0,0,0,5.0,0,0,0,0,0,0,0,0,0,0,0,
Fence Cave Local Fauna,Mammals,42.70416666666666,-91.41388888888888,0,0,0,0,0,0,0,0,0,0,0,0,0,0,0,0,0,0,0,0,0,0,
Johnson-3 [13ML130],Mammals,41.034444444444446,-95.75333333333336,0,0,0,0,0,0,0,0,0,0,0,0,0,0,0,0,0,0,0,0,0,2.0,
Johnson-1 [13ML128],Mammals,41.034444444444446,-95.75333333333336,0,0,0,0,0,0,0,0,0,0,0,0,0,0,0,0,0,0,0,0,0,1.0,
KuhL-4 [13ML139],Mammals,41.047222222222224,-97.79027777777777,0,0,0,0,0,0,0,0,0,0,0,0,0,0,0,0,0,0,0,0,0,1.0,
KuhL-1 [13ML126],Mammals,41.346944444444446,-95.78944444444443,0,0,0,0,0,0,0,0,0,0,0,0,0,0,0,0,0,0,0,0,0,1.0,
Gamble [13ML124],Mammals,41.0,-95.75,0,0,0,0,0,0,0,0,0,0,0,0,0,0,0,0,0,0,0,0,0,1.0,
Lincoln I [13ML119],Mammals,41.0,-95.75,0,0,0,0,0,0,0,0,0,0,0,0,0,0,0,0,0,0,0,0,1.0,0,
Grant [13AM201],Mammals,43.36666666666667,-91.36666666666666,0,0,0,0,0,0,0,0,0,0,0,0,0,0,0,0,0,0,0,0,0,0,
Robert Battey [13JK21],Mammals,42.11666666666667,-90.78333333333333,0,0,0,0,0,0,0,0,0,0,0,0,0,0,0,0,0,0,0,0,1.0,0,
Sweet Jane [13BN279],Mammals,42.11666666666667,-93.86666666666666,0,0,0,0,0,0,0,0,0,0,0,0,0,0,0,1.0,0,0,1.0,0,0,0,
Garrett Farm,Mammals,40.96666666666666,-95.7,0,0,0,0,0,0,0,0,0,0,0,0,0,0,0,0,0,0,10.0,0,0,0,
Pleasant Ridge,Mammals,40.96666666666666,-95.7,0,0,0,0,0,0,0,0,0,0,0,0,0,0,0,0,0,0,0,0,3.0,0,
Thurman,Mammals,40.75,-95.75,0,0,0,0,0,0,0,0,0,0,0,0,0,0,0,0,0,0,0,0,0,2.0,
Hadfield's Cave [13JN3],Mammals,42.233333333333334,-90.93333333333334,0,0,0,0,0,0,0,0,0,0,0,0,0,0,0,0,0,0,0,0,6.0,0,
Rainbow [13PM91],Mammals,42.61666666666666,-96.25,0,0,0,0,0,0,0,0,0,0,0,0,0,0,0,0,0,0,0,0,2.0,0,
Willard Cave,Mammals,42.63333333333334,-91.29722222222222,0,0,0,0,0,0,0,0,0,0,0,0,0,0,0,0,0,0,2.0,0,2.0,0,
Schmitt [13DB46],Mammals,42.36666666666667,-91.0,0,0,0,0,0,0,0,0,0,0,0,0,0,0,0,0,0,0,0,0,3.0,0,
Mud Creek,Mammals,41.61666666666666,-90.86666666666666,0,0,0,0,0,0,0,0,0,0,0,0,9.0,0,0,0,9.0,0,0,0,0,0,
Dows,Mammals,42.666666666666664,-93.4583333333333,0,0,0,0,0,0,0,0,0,0,0,0,1.0,0,0,0,0,0,0,0,0,0,
Cherokee Sewer [13CK405],Mammals,42.7225,-95.72333333333334,0,0,0,0,0,0,0,0,0,0,0,0,0,2.0,0,2.0,0,0,0,0,0,0,
M.A.D [13Cf101],Mammals,42.0,-95.25,0,0,0,0,0,0,0,0,0,0,0,0,0,0,0,0,0,0,0,0,2.0,0,
Waubonsie,Mammals,40.95805555555555,-95.73527777777775,0,0,0,0,0,0,0,0,0,0,0,0,0,0,0,0,0,0,0,0,0,0,
Craigmile,Mammals,40.95805555555555,-95.73527777777775,0,0,0,0,0,0,0,0,0,0,0,0,0,0,0,0,0,0,0,0,0,0,
Quitaque Creek,Mammals,34.25,-100.5,0,0,0,0,0,0,0,0,0,0,0,0,0,0,0,0,0,0,0,0,0,0,
Lewisville 1978-1980,Mammals,33.11666666666667,-97.0,0,0,0,0,0,0,0,0,0,0,0,0,0,0,0,0,0,0,0,0,0,0,
Zesch Cave,Mammals,30.75,-99.25,0,0,0,0,0,0,0,0,0,0,0,0,0,0,0,0,0,0,0,0,0,0,
Friesenhahn Cave,Mammals,29.616666666666667,-98.36666666666666,0,0,0,0,0,0,0,0,0,0,0,0,0,0,0,0,0,0,0,0,0,0,
Ten Mile Rock [3WA197],Mammals,35.866666666666674,-94.0,0,0,0,0,0,0,0,0,0,0,0,0,0,0,0,0,0,0,0,0,0,0,
Hosterman's Pit,Mammals,40.89277777777778,-77.43944444444446,0,0,0,0,0,0,0,0,0,0,0,0,0,0,0,0,0,0,0,0,0,0,
Sparks Rockshelter [15JO19],Mammals,37.855,-82.87166666666667,0,0,0,0,0,0,0,0,0,0,0,0,0,0,0,0,0,1.0,0,1.0,0,0,
Sylvan Lake Rockshelter [CLO2],Mammals,41.61666666666666,-73.61666666666667,0,0,0,0,0,0,0,0,0,0,0,0,0,0,0,0,0,0,0,0,0,0,
Frankstown Cave,Mammals,40.36666666666667,-78.25,0,0,0,0,0,0,0,0,0,0,0,0,0,0,0,0,0,0,0,0,0,0,
Holston Vista Cave,Mammals,36.75,-81.86666666666666,0,0,0,0,0,0,0,0,0,0,0,0,0,0,0,0,0,0,0,0,0,0,
Eggleston Fissure,Mammals,37.28361111111112,-80.61333333333332,0,0,0,0,0,0,0,0,0,0,0,0,0,0,0,0,0,0,0,0,0,0,
Pembroke Railroad Cave #1,Mammals,37.25,-80.75,0,0,0,0,0,0,0,0,0,0,0,0,0,0,0,0,0,0,0,0,0,0,
Klotz Quarry Cave #5,Mammals,37.25,-80.75,0,0,0,0,0,0,0,0,0,0,0,0,0,0,0,0,0,0,0,0,0,0,
Little Kettle Creek,Mammals,33.61666666666666,-82.75,0,0,0,0,0,0,0,0,0,0,0,0,0,0,0,0,0,0,0,0,0,0,
Megenity Peccary Cave,Mammals,38.25,-86.5,0,0,0,0,0,0,0,0,0,0,0,0,0,0,0,0,0,0,0,0,0,0,
Beetree Cave,Mammals,39.0,-86.61666666666667,0,0,0,0,0,0,0,0,0,0,0,0,0,0,0,0,0,0,0,0,0,0,
Anderson Pit,Mammals,39.0,-86.5,0,0,0,0,0,0,0,0,0,0,0,0,0,0,0,0,0,0,0,0,0,0,
Steuben Village,Mammals,40.98333333333334,-89.43333333333334,0,0,0,0,0,0,0,0,0,0,0,0,0,0,0,0,0,0,0,0,0,0,
Lilbourn [23NM38],Mammals,36.56666666666667,-89.60000000000002,0,0,0,0,0,0,0,0,0,0,0,0,0,0,0,0,0,0,0,0,8.0,8.0,
Aubrey [41DN479],Mammals,33.25,-96.86666666666666,0,0,0,0,0,0,0,0,0,0,0,0,0,0,0,0,0,0,0,0,0,0,
Tick Creek Cave [23PH145],Mammals,37.866666666666674,-91.86666666666666,0,0,0,0,0,0,0,0,0,0,0,0,0,0,0,0,0,0,0,0,0,0,
Zoo Cave,Mammals,36.61666666666666,-92.86666666666666,0,0,0,0,0,0,0,0,0,0,0,0,0,0,0,0,0,0,0,0,0,0,
Moscow Fissure,Mammals,42.866666666666674,-89.86666666666666,0,0,0,0,1.0,0,0,0,0,0,0,0,0,0,0,0,0,0,0,0,0,0,
Crankshaft Cave,Mammals,38.36666666666667,-90.5,0,0,0,0,0,0,0,0,0,0,184.0,0,0,0,0,0,0,0,0,0,0,0,
Barnhart,Mammals,38.34333333333334,-90.38388888888889,0,0,0,0,0,0,0,0,0,0,0,0,0,0,0,0,0,0,0,0,0,0,
Kimmswick,Mammals,38.379444444444445,-90.38472222222221,0,0,0,0,0,0,0,0,0,0,0,0,0,0,0,0,0,0,0,0,0,0,
Pipe Site [47FD10],Mammals,43.916666666666664,-88.3,0,0,0,0,0,0,0,0,0,0,0,0,0,0,0,0,0,0,0,0,0,0,
Smiling Dan [11ST123],Mammals,39.61666666666666,-90.5,0,0,0,0,0,0,0,0,0,0,0,0,0,0,0,0,0,0,0,0,0,0,
Campbell Hollow [11ST144],Mammals,39.61666666666666,-90.5,0,0,0,0,0,0,0,0,0,0,0,0,0,0,0,0,0,0,0,0,0,0,
Sheep Rock Shelter [36HU1],Mammals,40.36666666666667,-79.75,0,0,0,0,0,0,0,0,0,0,0,0,0,0,0,0,0,0,0,0,0,0,
Hollidaysburg Fissure,Mammals,40.36666666666667,-78.36666666666666,0,0,0,0,0,0,0,0,0,0,0,0,0,0,0,0,0,0,0,0,0,0,
Lost River Sink,Mammals,43.016666666666666,-89.85000000000002,0,0,0,0,0,0,0,0,0,0,0,0,0,0,0,0,0,0,4.0,4.0,0,0,
Dutchess Quarry Cave,Mammals,41.35,-74.36666666666666,0,0,0,0,0,0,0,0,0,0,0,0,0,0,0,0,0,0,0,0,0,0,
South Sulphur River,Mammals,33.11666666666667,-95.86666666666666,0,0,0,0,0,0,0,0,0,0,0,0,0,0,0,0,0,0,0,0,0,0,
Hall's Cave [41KR474] [41229],Mammals,30.13333333333333,-99.54166666666663,0,0,0,0,0,0,0,0,0,0,0,0,0,0,0,0,0,0,0,0,0,0,
New Trout Cave,Mammals,38.602777777777774,-79.36888888888889,0,0,0,0,0,0,0,0,0,0,0,0,0,0,0,0,0,0,0,0,0,0,
Keystone Rockshelter [13JK23],Mammals,42.03333333333334,-90.85000000000002,0,0,0,0,0,0,0,0,0,0,0,0,0,0,0,0,0,0,0,0,3.0,0,
Hiscock Site,Mammals,43.0,-78.0,0,0,0,0,0,0,0,0,0,0,0,0,0,0,0,0,0,0,0,0,0,0,
LaMoille Cave [21WN1],Mammals,44.0,-91.61666666666667,0,0,0,0,0,0,0,0,0,0,0,0,0,0,0,0,0,0,0,0,0,0,
Boney Spring,Mammals,38.111944,-93.366944,0,0,0,0,0,0,0,0,0,0,0,0,0,0,0,0,0,0,0,0,0,0,
Jerry Long Cave,Mammals,39.36666666666667,-91.61666666666667,0,0,0,0,0,0,0,0,0,0,0,0,0,0,0,0,0,0,0,0,0,0,
Jacobs Cave,Mammals,38.25,-92.86666666666666,0,0,0,0,0,0,0,0,0,0,0,0,0,0,0,0,0,0,0,0,0,2.0,
Rodgers Shelter [23BE125],Mammals,38.08888888888888,-93.35000000000002,0,0,0,0,0,0,0,0,0,0,0,0,0,0,0,0,0,0,0,0,0,0,
Meyer Cave,Mammals,38.39666666666666,-90.25388888888888,0,0,0,0,0,0,0,0,0,0,0,0,0,0,0,0,0,0,0,0,0,0,
Kingfish,Mammals,38.25,-89.86666666666666,0,0,0,0,0,0,0,0,0,0,0,0,0,0,0,0,0,0,0,0,0,0,
George Reeves [11S650],Mammals,38.48583333333334,-90.20861111111111,0,0,0,0,0,0,0,0,0,0,0,0,0,0,0,0,0,0,0,0,0,0,
Frederick [11SC11],Mammals,40.069722222222225,-90.43666666666668,0,0,0,0,0,0,0,0,0,0,0,0,0,0,0,0,0,0,0,0,0,0,
Napoleon Hollow [11PK500],Mammals,39.68666666666666,-90.64416666666665,0,0,0,0,0,0,0,0,0,0,0,0,0,0,0,0,0,0,0,0,0,0,
20SA1034,Mammals,43.25,-83.86666666666666,0,0,0,0,0,0,0,0,0,0,0,0,0,0,0,0,0,0,0,0,0,0,
Modoc Rock Shelter [11RA501],Mammals,38.0625,-90.06416666666667,0,0,0,0,0,0,0,0,0,0,0,0,0,0,0,0,0,0,0,0,0,0,
Wall Ridge [13ML176],Mammals,41.11666666666667,-95.78333333333333,0,0,0,0,0,0,0,0,0,0,0,0,0,0,0,0,0,0,0,0,2.0,2.0,
Allen site [25FT50],Mammals,40.39205,-100.23365000000001,0,0,0,0,0,0,0,0,0,0,0,0,0,0,0,0,0,0,0,0,0,0,
Lilienthal Site,Mammals,41.6691666666667,-90.9069444444444,0,0,0,0,0,0,0,0,0,0,0,0,0,0,0,0,0,0,0,0,0,0,
